{
  "austin_tx": [
    {
      "name": "CESAR CHAVEZ ST / 35 SVRD",
      "country": "US",
      "region": "Texas",
      "lat": 30.260996,
      "lon": -97.735786,
      "url": "https://cctv.austinmobility.io/image/674.jpg",
      "provider": "Austin Transportation",
      "timezone": "America/Chicago"
    },
    {
      "name": "CESAR CHAVEZ ST / SAN ANTONIO ST",
      "country": "US",
      "region": "Texas",
      "lat": 30.264656,
      "lon": -97.749115,
      "url": "https://cctv.austinmobility.io/image/675.jpg",
      "provider": "Austin Transportation",
      "timezone": "America/Chicago"
    },
    {
      "name": "LAMAR BLVD / TOOMEY RD",
      "country": "US",
      "region": "Texas",
      "lat": 30.262954,
      "lon": -97.757907,
      "url": "https://cctv.austinmobility.io/image/676.jpg",
      "provider": "Austin Transportation",
      "timezone": "America/Chicago"
    },
    {
      "name": "15TH ST / NUECES ST",
      "country": "US",
      "region": "Texas",
      "lat": 30.278534,
      "lon": -97.745148,
      "url": "https://cctv.austinmobility.io/image/678.jpg",
      "provider": "Austin Transportation",
      "timezone": "America/Chicago"
    },
    {
      "name": "8TH ST / SAN JACINTO BLVD",
      "country": "US",
      "region": "Texas",
      "lat": 30.269236,
      "lon": -97.739693,
      "url": "https://cctv.austinmobility.io/image/687.jpg",
      "provider": "Austin Transportation",
      "timezone": "America/Chicago"
    },
    {
      "name": "12TH ST / SAN JACINTO BLVD",
      "country": "US",
      "region": "Texas",
      "lat": 30.273203,
      "lon": -97.738243,
      "url": "https://cctv.austinmobility.io/image/691.jpg",
      "provider": "Austin Transportation",
      "timezone": "America/Chicago"
    },
    {
      "name": "LAVACA ST / 17TH ST",
      "country": "US",
      "region": "Texas",
      "lat": 30.279469,
      "lon": -97.741203,
      "url": "https://cctv.austinmobility.io/image/693.jpg",
      "provider": "Austin Transportation",
      "timezone": "America/Chicago"
    },
    {
      "name": "GUADALUPE ST / 29TH ST",
      "country": "US",
      "region": "Texas",
      "lat": 30.295429,
      "lon": -97.742813,
      "url": "https://cctv.austinmobility.io/image/697.jpg",
      "provider": "Austin Transportation",
      "timezone": "America/Chicago"
    },
    {
      "name": "RIVERSIDE DR / WILLOW CREEK DR",
      "country": "US",
      "region": "Texas",
      "lat": 30.23768,
      "lon": -97.725662,
      "url": "https://cctv.austinmobility.io/image/699.jpg",
      "provider": "Austin Transportation",
      "timezone": "America/Chicago"
    },
    {
      "name": "LAVACA ST / 18TH ST",
      "country": "US",
      "region": "Texas",
      "lat": 30.280344,
      "lon": -97.740873,
      "url": "https://cctv.austinmobility.io/image/700.jpg",
      "provider": "Austin Transportation",
      "timezone": "America/Chicago"
    },
    {
      "name": "MARTIN LUTHER KING JR BLVD / COLORADO ST",
      "country": "US",
      "region": "Texas",
      "lat": 30.281042,
      "lon": -97.73946,
      "url": "https://cctv.austinmobility.io/image/702.jpg",
      "provider": "Austin Transportation",
      "timezone": "America/Chicago"
    },
    {
      "name": "LAMAR BLVD / KRAMER LN",
      "country": "US",
      "region": "Texas",
      "lat": 30.37954,
      "lon": -97.687683,
      "url": "https://cctv.austinmobility.io/image/703.jpg",
      "provider": "Austin Transportation",
      "timezone": "America/Chicago"
    },
    {
      "name": "LAMAR BLVD / RUTLAND DR",
      "country": "US",
      "region": "Texas",
      "lat": 30.36487,
      "lon": -97.695999,
      "url": "https://cctv.austinmobility.io/image/704.jpg",
      "provider": "Austin Transportation",
      "timezone": "America/Chicago"
    },
    {
      "name": "LAMAR BLVD / MASTERSON PASS",
      "country": "US",
      "region": "Texas",
      "lat": 30.371176,
      "lon": -97.692459,
      "url": "https://cctv.austinmobility.io/image/705.jpg",
      "provider": "Austin Transportation",
      "timezone": "America/Chicago"
    },
    {
      "name": "LAMAR BLVD / NORTH BEND DR",
      "country": "US",
      "region": "Texas",
      "lat": 30.384495,
      "lon": -97.684998,
      "url": "https://cctv.austinmobility.io/image/706.jpg",
      "provider": "Austin Transportation",
      "timezone": "America/Chicago"
    },
    {
      "name": "BURNET RD / LONGHORN BLVD",
      "country": "US",
      "region": "Texas",
      "lat": 30.380013,
      "lon": -97.724876,
      "url": "https://cctv.austinmobility.io/image/707.jpg",
      "provider": "Austin Transportation",
      "timezone": "America/Chicago"
    },
    {
      "name": "BURNET RD / RICHCREEK RD",
      "country": "US",
      "region": "Texas",
      "lat": 30.350573,
      "lon": -97.734337,
      "url": "https://cctv.austinmobility.io/image/708.jpg",
      "provider": "Austin Transportation",
      "timezone": "America/Chicago"
    },
    {
      "name": "BURNET RD / ROCKWOOD LN",
      "country": "US",
      "region": "Texas",
      "lat": 30.368286,
      "lon": -97.727585,
      "url": "https://cctv.austinmobility.io/image/709.jpg",
      "provider": "Austin Transportation",
      "timezone": "America/Chicago"
    },
    {
      "name": "BURNET RD / GREENLAWN PKWY",
      "country": "US",
      "region": "Texas",
      "lat": 30.348255,
      "lon": -97.735779,
      "url": "https://cctv.austinmobility.io/image/710.jpg",
      "provider": "Austin Transportation",
      "timezone": "America/Chicago"
    },
    {
      "name": "BURNET RD / ROMERIA DR",
      "country": "US",
      "region": "Texas",
      "lat": 30.336927,
      "lon": -97.739464,
      "url": "https://cctv.austinmobility.io/image/711.jpg",
      "provider": "Austin Transportation",
      "timezone": "America/Chicago"
    },
    {
      "name": "LAMAR BLVD / PANTHER TRL",
      "country": "US",
      "region": "Texas",
      "lat": 30.23867,
      "lon": -97.789284,
      "url": "https://cctv.austinmobility.io/image/712.jpg",
      "provider": "Austin Transportation",
      "timezone": "America/Chicago"
    },
    {
      "name": "LAMAR BLVD / DICKSON DR",
      "country": "US",
      "region": "Texas",
      "lat": 30.245348,
      "lon": -97.779913,
      "url": "https://cctv.austinmobility.io/image/713.jpg",
      "provider": "Austin Transportation",
      "timezone": "America/Chicago"
    },
    {
      "name": "WILLIAM CANNON DR / EMERALD FOREST DR",
      "country": "US",
      "region": "Texas",
      "lat": 30.199259,
      "lon": -97.79361,
      "url": "https://cctv.austinmobility.io/image/714.jpg",
      "provider": "Austin Transportation",
      "timezone": "America/Chicago"
    },
    {
      "name": "WILLIAM CANNON DR / CIRCLE S RD",
      "country": "US",
      "region": "Texas",
      "lat": 30.192722,
      "lon": -97.777596,
      "url": "https://cctv.austinmobility.io/image/715.jpg",
      "provider": "Austin Transportation",
      "timezone": "America/Chicago"
    },
    {
      "name": "WILLIAM CANNON DR / BILL HUGHES RD",
      "country": "US",
      "region": "Texas",
      "lat": 30.195639,
      "lon": -97.78508,
      "url": "https://cctv.austinmobility.io/image/716.jpg",
      "provider": "Austin Transportation",
      "timezone": "America/Chicago"
    },
    {
      "name": "WILLIAM CANNON DR / COOPER LN",
      "country": "US",
      "region": "Texas",
      "lat": 30.198507,
      "lon": -97.791122,
      "url": "https://cctv.austinmobility.io/image/717.jpg",
      "provider": "Austin Transportation",
      "timezone": "America/Chicago"
    },
    {
      "name": "WILLIAM CANNON DR / MEADOW LAKE BLVD",
      "country": "US",
      "region": "Texas",
      "lat": 30.18095,
      "lon": -97.750255,
      "url": "https://cctv.austinmobility.io/image/718.jpg",
      "provider": "Austin Transportation",
      "timezone": "America/Chicago"
    },
    {
      "name": "1500 BLK RED RIVER ST (Frank Erwin Center (South))",
      "country": "US",
      "region": "Texas",
      "lat": 30.277128,
      "lon": -97.733251,
      "url": "https://cctv.austinmobility.io/image/719.jpg",
      "provider": "Austin Transportation",
      "timezone": "America/Chicago"
    },
    {
      "name": "1ST ST / BARTON SPRINGS RD",
      "country": "US",
      "region": "Texas",
      "lat": 30.258383,
      "lon": -97.750069,
      "url": "https://cctv.austinmobility.io/image/720.jpg",
      "provider": "Austin Transportation",
      "timezone": "America/Chicago"
    },
    {
      "name": "1ST ST / RIVERSIDE DR",
      "country": "US",
      "region": "Texas",
      "lat": 30.259758,
      "lon": -97.749275,
      "url": "https://cctv.austinmobility.io/image/721.jpg",
      "provider": "Austin Transportation",
      "timezone": "America/Chicago"
    },
    {
      "name": "SLAUGHTER LN / PALACE PKWY",
      "country": "US",
      "region": "Texas",
      "lat": 30.174032,
      "lon": -97.805878,
      "url": "https://cctv.austinmobility.io/image/732.jpg",
      "provider": "Austin Transportation",
      "timezone": "America/Chicago"
    },
    {
      "name": "SLAUGHTER LN / LINDSHIRE LN",
      "country": "US",
      "region": "Texas",
      "lat": 30.178185,
      "lon": -97.838776,
      "url": "https://cctv.austinmobility.io/image/733.jpg",
      "provider": "Austin Transportation",
      "timezone": "America/Chicago"
    },
    {
      "name": "SLAUGHTER LN / E SLAUGHTER TO BRANDT RAMP",
      "country": "US",
      "region": "Texas",
      "lat": 30.160231,
      "lon": -97.776718,
      "url": "https://cctv.austinmobility.io/image/734.jpg",
      "provider": "Austin Transportation",
      "timezone": "America/Chicago"
    },
    {
      "name": "SLAUGHTER LN / CULLEN LN",
      "country": "US",
      "region": "Texas",
      "lat": 30.167196,
      "lon": -97.790932,
      "url": "https://cctv.austinmobility.io/image/735.jpg",
      "provider": "Austin Transportation",
      "timezone": "America/Chicago"
    },
    {
      "name": "SLAUGHTER LN / BILBROOK PL",
      "country": "US",
      "region": "Texas",
      "lat": 30.173864,
      "lon": -97.816994,
      "url": "https://cctv.austinmobility.io/image/736.jpg",
      "provider": "Austin Transportation",
      "timezone": "America/Chicago"
    },
    {
      "name": "GRACY FARMS LN / MOPAC EXPY SVRD",
      "country": "US",
      "region": "Texas",
      "lat": 30.407375,
      "lon": -97.714279,
      "url": "https://cctv.austinmobility.io/image/737.jpg",
      "provider": "Austin Transportation",
      "timezone": "America/Chicago"
    },
    {
      "name": "12500 BLK N LAMAR BLVD (WALMART)",
      "country": "US",
      "region": "Texas",
      "lat": 30.411049,
      "lon": -97.677851,
      "url": "https://cctv.austinmobility.io/image/738.jpg",
      "provider": "Austin Transportation",
      "timezone": "America/Chicago"
    },
    {
      "name": "12500 BLK N LAMAR BLVD (Connally High School)",
      "country": "US",
      "region": "Texas",
      "lat": 30.418306,
      "lon": -97.675247,
      "url": "https://cctv.austinmobility.io/image/739.jpg",
      "provider": "Austin Transportation",
      "timezone": "America/Chicago"
    },
    {
      "name": "SLAUGHTER LN / WOLFTRAP DR",
      "country": "US",
      "region": "Texas",
      "lat": 30.186686,
      "lon": -97.855034,
      "url": "https://cctv.austinmobility.io/image/740.jpg",
      "provider": "Austin Transportation",
      "timezone": "America/Chicago"
    },
    {
      "name": "SLAUGHTER LN / CURLEW DR",
      "country": "US",
      "region": "Texas",
      "lat": 30.176577,
      "lon": -97.833992,
      "url": "https://cctv.austinmobility.io/image/741.jpg",
      "provider": "Austin Transportation",
      "timezone": "America/Chicago"
    },
    {
      "name": "SLAUGHTER LN / UNITED KINGDOM DR",
      "country": "US",
      "region": "Texas",
      "lat": 30.173962,
      "lon": -97.809326,
      "url": "https://cctv.austinmobility.io/image/742.jpg",
      "provider": "Austin Transportation",
      "timezone": "America/Chicago"
    },
    {
      "name": "SLAUGHTER LN / RIDDLE RD",
      "country": "US",
      "region": "Texas",
      "lat": 30.173983,
      "lon": -97.827148,
      "url": "https://cctv.austinmobility.io/image/743.jpg",
      "provider": "Austin Transportation",
      "timezone": "America/Chicago"
    },
    {
      "name": "4101 BLK W WILLIAM CANNON DR (COSTCO)",
      "country": "US",
      "region": "Texas",
      "lat": 30.22241,
      "lon": -97.839043,
      "url": "https://cctv.austinmobility.io/image/744.jpg",
      "provider": "Austin Transportation",
      "timezone": "America/Chicago"
    },
    {
      "name": "701 BLK E WILLIAM CANNON DR (CENTURY SOUTH)",
      "country": "US",
      "region": "Texas",
      "lat": 30.191372,
      "lon": -97.773041,
      "url": "https://cctv.austinmobility.io/image/745.jpg",
      "provider": "Austin Transportation",
      "timezone": "America/Chicago"
    },
    {
      "name": "2000 BLK W SLAUGHTER LN (HEB)",
      "country": "US",
      "region": "Texas",
      "lat": 30.173765,
      "lon": -97.825523,
      "url": "https://cctv.austinmobility.io/image/746.jpg",
      "provider": "Austin Transportation",
      "timezone": "America/Chicago"
    },
    {
      "name": "RIVERSIDE DR / CROSSING PL",
      "country": "US",
      "region": "Texas",
      "lat": 30.231636,
      "lon": -97.717461,
      "url": "https://cctv.austinmobility.io/image/755.jpg",
      "provider": "Austin Transportation",
      "timezone": "America/Chicago"
    },
    {
      "name": "BURNET RD / ASHDALE DR",
      "country": "US",
      "region": "Texas",
      "lat": 30.358596,
      "lon": -97.730172,
      "url": "https://cctv.austinmobility.io/image/756.jpg",
      "provider": "Austin Transportation",
      "timezone": "America/Chicago"
    },
    {
      "name": "GUADALUPE ST / 27TH ST",
      "country": "US",
      "region": "Texas",
      "lat": 30.291985,
      "lon": -97.74115,
      "url": "https://cctv.austinmobility.io/image/757.jpg",
      "provider": "Austin Transportation",
      "timezone": "America/Chicago"
    },
    {
      "name": "LAMAR BLVD / MENCHACA RD (Barton Skwy)",
      "country": "US",
      "region": "Texas",
      "lat": 30.244257,
      "lon": -97.781395,
      "url": "https://cctv.austinmobility.io/image/758.jpg",
      "provider": "Austin Transportation",
      "timezone": "America/Chicago"
    },
    {
      "name": "LAMAR BLVD / BARTON SKWY (Menchaca Rd)",
      "country": "US",
      "region": "Texas",
      "lat": 30.243652,
      "lon": -97.782364,
      "url": "https://cctv.austinmobility.io/image/759.jpg",
      "provider": "Austin Transportation",
      "timezone": "America/Chicago"
    },
    {
      "name": "IH 35 SVRD / ANDERSON LN SVRD",
      "country": "US",
      "region": "Texas",
      "lat": 30.338856,
      "lon": -97.699554,
      "url": "https://cctv.austinmobility.io/image/760.jpg",
      "provider": "Austin Transportation",
      "timezone": "America/Chicago"
    },
    {
      "name": "RUNDBERG LN / 35 SVRD",
      "country": "US",
      "region": "Texas",
      "lat": 30.357906,
      "lon": -97.687492,
      "url": "https://cctv.austinmobility.io/image/761.jpg",
      "provider": "Austin Transportation",
      "timezone": "America/Chicago"
    },
    {
      "name": "FM 620 RD / FOUR POINTS DR",
      "country": "US",
      "region": "Texas",
      "lat": 30.406595,
      "lon": -97.852478,
      "url": "https://cctv.austinmobility.io/image/764.jpg",
      "provider": "Austin Transportation",
      "timezone": "America/Chicago"
    },
    {
      "name": "HOWARD LN / HEATHERWILDE BLVD",
      "country": "US",
      "region": "Texas",
      "lat": 30.419407,
      "lon": -97.66095,
      "url": "https://cctv.austinmobility.io/image/770.jpg",
      "provider": "Austin Transportation",
      "timezone": "America/Chicago"
    },
    {
      "name": "SPICEWOOD SPRINGS RD / 183 HWY SVRD",
      "country": "US",
      "region": "Texas",
      "lat": 30.434086,
      "lon": -97.770149,
      "url": "https://cctv.austinmobility.io/image/773.jpg",
      "provider": "Austin Transportation",
      "timezone": "America/Chicago"
    },
    {
      "name": "LAKELINE MALL DR / NORTH LAKE CREEK PKWY",
      "country": "US",
      "region": "Texas",
      "lat": 30.475256,
      "lon": -97.79393,
      "url": "https://cctv.austinmobility.io/image/778.jpg",
      "provider": "Austin Transportation",
      "timezone": "America/Chicago"
    },
    {
      "name": "2100 BLK S LAMAR BLVD (Oxford Ave)",
      "country": "US",
      "region": "Texas",
      "lat": 30.248083,
      "lon": -97.77121,
      "url": "https://cctv.austinmobility.io/image/781.jpg",
      "provider": "Austin Transportation",
      "timezone": "America/Chicago"
    },
    {
      "name": "2316 BLK E RIVERSIDE DR (HEB)",
      "country": "US",
      "region": "Texas",
      "lat": 30.235973,
      "lon": -97.724823,
      "url": "https://cctv.austinmobility.io/image/783.jpg",
      "provider": "Austin Transportation",
      "timezone": "America/Chicago"
    },
    {
      "name": "GUADALUPE ST / 22ND ST",
      "country": "US",
      "region": "Texas",
      "lat": 30.284998,
      "lon": -97.741814,
      "url": "https://cctv.austinmobility.io/image/784.jpg",
      "provider": "Austin Transportation",
      "timezone": "America/Chicago"
    },
    {
      "name": "GUADALUPE ST / WEST MALL UT  (UT CROSSWALK)",
      "country": "US",
      "region": "Texas",
      "lat": 30.285893,
      "lon": -97.741737,
      "url": "https://cctv.austinmobility.io/image/785.jpg",
      "provider": "Austin Transportation",
      "timezone": "America/Chicago"
    },
    {
      "name": "CESAR CHAVEZ ST / SAN JACINTO BLVD",
      "country": "US",
      "region": "Texas",
      "lat": 30.262692,
      "lon": -97.742104,
      "url": "https://cctv.austinmobility.io/image/786.jpg",
      "provider": "Austin Transportation",
      "timezone": "America/Chicago"
    },
    {
      "name": "RIVERSIDE DR / PARKER LN",
      "country": "US",
      "region": "Texas",
      "lat": 30.243229,
      "lon": -97.729309,
      "url": "https://cctv.austinmobility.io/image/787.jpg",
      "provider": "Austin Transportation",
      "timezone": "America/Chicago"
    },
    {
      "name": "SLAUGHTER LN / ALICE MAE LN",
      "country": "US",
      "region": "Texas",
      "lat": 30.167644,
      "lon": -97.793098,
      "url": "https://cctv.austinmobility.io/image/788.jpg",
      "provider": "Austin Transportation",
      "timezone": "America/Chicago"
    },
    {
      "name": "CESAR CHAVEZ ST / TRINITY ST",
      "country": "US",
      "region": "Texas",
      "lat": 30.262396,
      "lon": -97.741074,
      "url": "https://cctv.austinmobility.io/image/791.jpg",
      "provider": "Austin Transportation",
      "timezone": "America/Chicago"
    },
    {
      "name": "AVERY RANCH BLVD / PEARSON RANCH RD",
      "country": "US",
      "region": "Texas",
      "lat": 30.503386,
      "lon": -97.752029,
      "url": "https://cctv.austinmobility.io/image/792.jpg",
      "provider": "Austin Transportation",
      "timezone": "America/Chicago"
    },
    {
      "name": "ESCARPMENT BLVD / CONVICT HILL RD",
      "country": "US",
      "region": "Texas",
      "lat": 30.225796,
      "lon": -97.86866,
      "url": "https://cctv.austinmobility.io/image/793.jpg",
      "provider": "Austin Transportation",
      "timezone": "America/Chicago"
    },
    {
      "name": "OLTORF ST / DURWOOD ST",
      "country": "US",
      "region": "Texas",
      "lat": 30.241348,
      "lon": -97.75798,
      "url": "https://cctv.austinmobility.io/image/794.jpg",
      "provider": "Austin Transportation",
      "timezone": "America/Chicago"
    },
    {
      "name": "400 BLK S CONGRESS AVE (Music Lane)",
      "country": "US",
      "region": "Texas",
      "lat": 30.253627,
      "lon": -97.748178,
      "url": "https://cctv.austinmobility.io/image/795.jpg",
      "provider": "Austin Transportation",
      "timezone": "America/Chicago"
    },
    {
      "name": "SHOAL CREEK BLVD / HANCOCK DR",
      "country": "US",
      "region": "Texas",
      "lat": 30.325602,
      "lon": -97.744965,
      "url": "https://cctv.austinmobility.io/image/796.jpg",
      "provider": "Austin Transportation",
      "timezone": "America/Chicago"
    },
    {
      "name": "CONGRESS AVE / CONGRESS AVE (HEB)",
      "country": "US",
      "region": "Texas",
      "lat": 30.169798,
      "lon": -97.78745,
      "url": "https://cctv.austinmobility.io/image/797.jpg",
      "provider": "Austin Transportation",
      "timezone": "America/Chicago"
    },
    {
      "name": "45TH ST / RAMSEY AVE",
      "country": "US",
      "region": "Texas",
      "lat": 30.316204,
      "lon": -97.74337,
      "url": "https://cctv.austinmobility.io/image/798.jpg",
      "provider": "Austin Transportation",
      "timezone": "America/Chicago"
    },
    {
      "name": "ENFIELD RD / HARTFORD RD",
      "country": "US",
      "region": "Texas",
      "lat": 30.284676,
      "lon": -97.761864,
      "url": "https://cctv.austinmobility.io/image/799.jpg",
      "provider": "Austin Transportation",
      "timezone": "America/Chicago"
    },
    {
      "name": "BRAKER LN / DOMAIN DR (Pickle Research Campus Driveway)",
      "country": "US",
      "region": "Texas",
      "lat": 30.392347,
      "lon": -97.725624,
      "url": "https://cctv.austinmobility.io/image/800.jpg",
      "provider": "Austin Transportation",
      "timezone": "America/Chicago"
    },
    {
      "name": "BARBARA JORDAN BLVD / MUELLER BLVD",
      "country": "US",
      "region": "Texas",
      "lat": 30.304252,
      "lon": -97.703855,
      "url": "https://cctv.austinmobility.io/image/801.jpg",
      "provider": "Austin Transportation",
      "timezone": "America/Chicago"
    },
    {
      "name": "RED RIVER ST / LUTHER LN",
      "country": "US",
      "region": "Texas",
      "lat": 30.293452,
      "lon": -97.725307,
      "url": "https://cctv.austinmobility.io/image/802.jpg",
      "provider": "Austin Transportation",
      "timezone": "America/Chicago"
    },
    {
      "name": "1310 BLK WESTBANK DR (Westlake High School, East of Camp Craft Dr)",
      "country": "US",
      "region": "Texas",
      "lat": 30.274894,
      "lon": -97.813709,
      "url": "https://cctv.austinmobility.io/image/803.jpg",
      "provider": "Austin Transportation",
      "timezone": "America/Chicago"
    },
    {
      "name": "WALSH TARLTON LN / WALSH TARLTON LN",
      "country": "US",
      "region": "Texas",
      "lat": 30.272469,
      "lon": -97.801655,
      "url": "https://cctv.austinmobility.io/image/804.jpg",
      "provider": "Austin Transportation",
      "timezone": "America/Chicago"
    },
    {
      "name": "FM 1825 RD / WELLS BRANCH PKWY",
      "country": "US",
      "region": "Texas",
      "lat": 30.441168,
      "lon": -97.666176,
      "url": "https://cctv.austinmobility.io/image/805.jpg",
      "provider": "Austin Transportation",
      "timezone": "America/Chicago"
    },
    {
      "name": "MARTIN LUTHER KING JR BLVD / SAN JACINTO BLVD",
      "country": "US",
      "region": "Texas",
      "lat": 30.279976,
      "lon": -97.73571,
      "url": "https://cctv.austinmobility.io/image/811.jpg",
      "provider": "Austin Transportation",
      "timezone": "America/Chicago"
    },
    {
      "name": "GUADALUPE ST / 26TH ST",
      "country": "US",
      "region": "Texas",
      "lat": 30.29047,
      "lon": -97.74128,
      "url": "https://cctv.austinmobility.io/image/816.jpg",
      "provider": "Austin Transportation",
      "timezone": "America/Chicago"
    },
    {
      "name": "SPICEWOOD SPRINGS RD / WOOD HOLLOW DR",
      "country": "US",
      "region": "Texas",
      "lat": 30.361765,
      "lon": -97.746895,
      "url": "https://cctv.austinmobility.io/image/830.jpg",
      "provider": "Austin Transportation",
      "timezone": "America/Chicago"
    },
    {
      "name": "35TH ST / JEFFERSON ST",
      "country": "US",
      "region": "Texas",
      "lat": 30.3078,
      "lon": -97.751602,
      "url": "https://cctv.austinmobility.io/image/833.jpg",
      "provider": "Austin Transportation",
      "timezone": "America/Chicago"
    },
    {
      "name": "LAMAR BLVD / HOUSTON ST",
      "country": "US",
      "region": "Texas",
      "lat": 30.323225,
      "lon": -97.728081,
      "url": "https://cctv.austinmobility.io/image/846.jpg",
      "provider": "Austin Transportation",
      "timezone": "America/Chicago"
    },
    {
      "name": "15TH ST / 35 SVRD",
      "country": "US",
      "region": "Texas",
      "lat": 30.274611,
      "lon": -97.73098,
      "url": "https://cctv.austinmobility.io/image/896.jpg",
      "provider": "Austin Transportation",
      "timezone": "America/Chicago"
    },
    {
      "name": "FAR WEST BLVD / VILLAGE CENTER DR",
      "country": "US",
      "region": "Texas",
      "lat": 30.354349,
      "lon": -97.755081,
      "url": "https://cctv.austinmobility.io/image/907.jpg",
      "provider": "Austin Transportation",
      "timezone": "America/Chicago"
    },
    {
      "name": "RIVERSIDE DR / BURTON DR",
      "country": "US",
      "region": "Texas",
      "lat": 30.24024,
      "lon": -97.727036,
      "url": "https://cctv.austinmobility.io/image/913.jpg",
      "provider": "Austin Transportation",
      "timezone": "America/Chicago"
    },
    {
      "name": "1ST ST / FLOURNOY DR",
      "country": "US",
      "region": "Texas",
      "lat": 30.203835,
      "lon": -97.783821,
      "url": "https://cctv.austinmobility.io/image/915.jpg",
      "provider": "Austin Transportation",
      "timezone": "America/Chicago"
    },
    {
      "name": "CONGRESS AVE / ST ELMO RD",
      "country": "US",
      "region": "Texas",
      "lat": 30.21748,
      "lon": -97.767304,
      "url": "https://cctv.austinmobility.io/image/916.jpg",
      "provider": "Austin Transportation",
      "timezone": "America/Chicago"
    },
    {
      "name": "CONGRESS AVE / BEN WHITE BLVD SVRD",
      "country": "US",
      "region": "Texas",
      "lat": 30.222479,
      "lon": -97.764168,
      "url": "https://cctv.austinmobility.io/image/919.jpg",
      "provider": "Austin Transportation",
      "timezone": "America/Chicago"
    },
    {
      "name": "FAR WEST BLVD / MOPAC EXPY SVRD",
      "country": "US",
      "region": "Texas",
      "lat": 30.351585,
      "lon": -97.748367,
      "url": "https://cctv.austinmobility.io/image/929.jpg",
      "provider": "Austin Transportation",
      "timezone": "America/Chicago"
    },
    {
      "name": "DUVAL RD / MOPAC EXPY SVRD",
      "country": "US",
      "region": "Texas",
      "lat": 30.407818,
      "lon": -97.715851,
      "url": "https://cctv.austinmobility.io/image/944.jpg",
      "provider": "Austin Transportation",
      "timezone": "America/Chicago"
    },
    {
      "name": "IH 35 SVRD / WOODWARD ST",
      "country": "US",
      "region": "Texas",
      "lat": 30.223023,
      "lon": -97.747116,
      "url": "https://cctv.austinmobility.io/image/948.jpg",
      "provider": "Austin Transportation",
      "timezone": "America/Chicago"
    },
    {
      "name": "BEN WHITE BLVD SVRD / MONTOPOLIS DR",
      "country": "US",
      "region": "Texas",
      "lat": 30.212687,
      "lon": -97.712097,
      "url": "https://cctv.austinmobility.io/image/949.jpg",
      "provider": "Austin Transportation",
      "timezone": "America/Chicago"
    },
    {
      "name": "PARMER LN / MOPAC EXPY SVRD",
      "country": "US",
      "region": "Texas",
      "lat": 30.420591,
      "lon": -97.704598,
      "url": "https://cctv.austinmobility.io/image/953.jpg",
      "provider": "Austin Transportation",
      "timezone": "America/Chicago"
    },
    {
      "name": "BRAKER LN / MOPAC EXPY SVRD",
      "country": "US",
      "region": "Texas",
      "lat": 30.396101,
      "lon": -97.733398,
      "url": "https://cctv.austinmobility.io/image/958.jpg",
      "provider": "Austin Transportation",
      "timezone": "America/Chicago"
    },
    {
      "name": "1ST ST / BEN WHITE BLVD SVRD",
      "country": "US",
      "region": "Texas",
      "lat": 30.226185,
      "lon": -97.769669,
      "url": "https://cctv.austinmobility.io/image/962.jpg",
      "provider": "Austin Transportation",
      "timezone": "America/Chicago"
    },
    {
      "name": "SPRINGDALE RD / ED BLUESTEIN BLVD SVRD",
      "country": "US",
      "region": "Texas",
      "lat": 30.316633,
      "lon": -97.662689,
      "url": "https://cctv.austinmobility.io/image/1000.jpg",
      "provider": "Austin Transportation",
      "timezone": "America/Chicago"
    },
    {
      "name": "BURNET RD / RESEARCH BLVD SVRD",
      "country": "US",
      "region": "Texas",
      "lat": 30.373507,
      "lon": -97.726288,
      "url": "https://cctv.austinmobility.io/image/1011.jpg",
      "provider": "Austin Transportation",
      "timezone": "America/Chicago"
    },
    {
      "name": "LAKELINE BLVD / 183 HWY SVRD",
      "country": "US",
      "region": "Texas",
      "lat": 30.480049,
      "lon": -97.801956,
      "url": "https://cctv.austinmobility.io/image/1013.jpg",
      "provider": "Austin Transportation",
      "timezone": "America/Chicago"
    },
    {
      "name": "LAKELINE MALL DR / 183 HWY SVRD",
      "country": "US",
      "region": "Texas",
      "lat": 30.473202,
      "lon": -97.798264,
      "url": "https://cctv.austinmobility.io/image/1018.jpg",
      "provider": "Austin Transportation",
      "timezone": "America/Chicago"
    },
    {
      "name": "HOWARD LN / 35 SVRD",
      "country": "US",
      "region": "Texas",
      "lat": 30.424465,
      "lon": -97.67189,
      "url": "https://cctv.austinmobility.io/image/1019.jpg",
      "provider": "Austin Transportation",
      "timezone": "America/Chicago"
    },
    {
      "name": "RESEARCH BLVD SVRD / ANDERSON SQ",
      "country": "US",
      "region": "Texas",
      "lat": 30.353102,
      "lon": -97.714195,
      "url": "https://cctv.austinmobility.io/image/1020.jpg",
      "provider": "Austin Transportation",
      "timezone": "America/Chicago"
    },
    {
      "name": "SLAUGHTER LN / BARSTOW AVE",
      "country": "US",
      "region": "Texas",
      "lat": 30.208704,
      "lon": -97.889267,
      "url": "https://cctv.austinmobility.io/image/1042.jpg",
      "provider": "Austin Transportation",
      "timezone": "America/Chicago"
    },
    {
      "name": "MOPAC EXPY SVRD / PARK BEND DR",
      "country": "US",
      "region": "Texas",
      "lat": 30.410803,
      "lon": -97.709496,
      "url": "https://cctv.austinmobility.io/image/1046.jpg",
      "provider": "Austin Transportation",
      "timezone": "America/Chicago"
    },
    {
      "name": "CAPITAL OF TEXAS HWY / RESEARCH BLVD SVRD",
      "country": "US",
      "region": "Texas",
      "lat": 30.389793,
      "lon": -97.744301,
      "url": "https://cctv.austinmobility.io/image/1080.jpg",
      "provider": "Austin Transportation",
      "timezone": "America/Chicago"
    },
    {
      "name": "FREIDRICH LN / ST ELMO RD",
      "country": "US",
      "region": "Texas",
      "lat": 30.210959,
      "lon": -97.749001,
      "url": "https://cctv.austinmobility.io/image/1086.jpg",
      "provider": "Austin Transportation",
      "timezone": "America/Chicago"
    },
    {
      "name": "BRODIE LN / 290 HWY SVRD",
      "country": "US",
      "region": "Texas",
      "lat": 30.233582,
      "lon": -97.818329,
      "url": "https://cctv.austinmobility.io/image/1088.jpg",
      "provider": "Austin Transportation",
      "timezone": "America/Chicago"
    },
    {
      "name": "SPICEWOOD SPRINGS RD / MESA DR",
      "country": "US",
      "region": "Texas",
      "lat": 30.371532,
      "lon": -97.757225,
      "url": "https://cctv.austinmobility.io/image/1109.jpg",
      "provider": "Austin Transportation",
      "timezone": "America/Chicago"
    },
    {
      "name": "DESSAU RD / CRYSTAL BEND DR",
      "country": "US",
      "region": "Texas",
      "lat": 30.407036,
      "lon": -97.636017,
      "url": "https://cctv.austinmobility.io/image/1115.jpg",
      "provider": "Austin Transportation",
      "timezone": "America/Chicago"
    },
    {
      "name": "KOENIG LN / ARROYO SECO",
      "country": "US",
      "region": "Texas",
      "lat": 30.332352,
      "lon": -97.73467,
      "url": "https://cctv.austinmobility.io/image/1122.jpg",
      "provider": "Austin Transportation",
      "timezone": "America/Chicago"
    },
    {
      "name": "CAPITAL OF TEXAS HWY / 2222 RD",
      "country": "US",
      "region": "Texas",
      "lat": 30.359398,
      "lon": -97.791847,
      "url": "https://cctv.austinmobility.io/image/1136.jpg",
      "provider": "Austin Transportation",
      "timezone": "America/Chicago"
    },
    {
      "name": "9700 BLK ANDERSON MILL RD (Bethany)",
      "country": "US",
      "region": "Texas",
      "lat": 30.44696,
      "lon": -97.797707,
      "url": "https://cctv.austinmobility.io/image/1138.jpg",
      "provider": "Austin Transportation",
      "timezone": "America/Chicago"
    },
    {
      "name": "BEN WHITE BLVD / RIVERSIDE DR",
      "country": "US",
      "region": "Texas",
      "lat": 30.21806,
      "lon": -97.69058,
      "url": "https://cctv.austinmobility.io/image/1145.jpg",
      "provider": "Austin Transportation",
      "timezone": "America/Chicago"
    },
    {
      "name": "MOPAC EXPY SVRD / BEE CAVE RD",
      "country": "US",
      "region": "Texas",
      "lat": 30.266275,
      "lon": -97.782841,
      "url": "https://cctv.austinmobility.io/image/1149.jpg",
      "provider": "Austin Transportation",
      "timezone": "America/Chicago"
    },
    {
      "name": "LAMAR BLVD / POWELL LN",
      "country": "US",
      "region": "Texas",
      "lat": 30.350815,
      "lon": -97.709161,
      "url": "https://cctv.austinmobility.io/image/1151.jpg",
      "provider": "Austin Transportation",
      "timezone": "America/Chicago"
    },
    {
      "name": "LAMAR BLVD / FAIRFIELD DR",
      "country": "US",
      "region": "Texas",
      "lat": 30.355481,
      "lon": -97.702689,
      "url": "https://cctv.austinmobility.io/image/1168.jpg",
      "provider": "Austin Transportation",
      "timezone": "America/Chicago"
    },
    {
      "name": "DECKER LN / CITY TOP BLVD",
      "country": "US",
      "region": "Texas",
      "lat": 30.300922,
      "lon": -97.621757,
      "url": "https://cctv.austinmobility.io/image/1188.jpg",
      "provider": "Austin Transportation",
      "timezone": "America/Chicago"
    },
    {
      "name": "GUADALUPE ST / 46TH ST",
      "country": "US",
      "region": "Texas",
      "lat": 30.313028,
      "lon": -97.73252,
      "url": "https://cctv.austinmobility.io/image/1190.jpg",
      "provider": "Austin Transportation",
      "timezone": "America/Chicago"
    },
    {
      "name": "CESAR CHAVEZ ST / SAN MARCOS ST",
      "country": "US",
      "region": "Texas",
      "lat": 30.260589,
      "lon": -97.734611,
      "url": "https://cctv.austinmobility.io/image/1274.jpg",
      "provider": "Austin Transportation",
      "timezone": "America/Chicago"
    },
    {
      "name": "BURNET RD / RESEARCH BLVD SVRD",
      "country": "US",
      "region": "Texas",
      "lat": 30.372885,
      "lon": -97.726479,
      "url": "https://cctv.austinmobility.io/image/1275.jpg",
      "provider": "Austin Transportation",
      "timezone": "America/Chicago"
    },
    {
      "name": "BASTROP HWY / MONTOPOLIS TO BASTROP NB RAMP (US 183/Montopolis)",
      "country": "US",
      "region": "Texas",
      "lat": 30.242779,
      "lon": -97.690212,
      "url": "https://cctv.austinmobility.io/image/1276.jpg",
      "provider": "Austin Transportation",
      "timezone": "America/Chicago"
    },
    {
      "name": "BURNET RD / BRIGHT VERDE WAY",
      "country": "US",
      "region": "Texas",
      "lat": 30.3883,
      "lon": -97.7228,
      "url": "https://cctv.austinmobility.io/image/1277.jpg",
      "provider": "Austin Transportation",
      "timezone": "America/Chicago"
    },
    {
      "name": "BRAKER LN / AGUILAR ST",
      "country": "US",
      "region": "Texas",
      "lat": 30.3905,
      "lon": -97.7191,
      "url": "https://cctv.austinmobility.io/image/1278.jpg",
      "provider": "Austin Transportation",
      "timezone": "America/Chicago"
    },
    {
      "name": "830 BLK W RUNDBERG LN (Little Walnut Creek Library, HEB)",
      "country": "US",
      "region": "Texas",
      "lat": 30.363686,
      "lon": -97.698158,
      "url": "https://cctv.austinmobility.io/image/1.jpg",
      "provider": "Austin Transportation",
      "timezone": "America/Chicago"
    },
    {
      "name": "AIRPORT BLVD / OAK SPRINGS DR",
      "country": "US",
      "region": "Texas",
      "lat": 30.273556,
      "lon": -97.697907,
      "url": "https://cctv.austinmobility.io/image/2.jpg",
      "provider": "Austin Transportation",
      "timezone": "America/Chicago"
    },
    {
      "name": "STAKED PLAINS DR / LAKELINE BLVD",
      "country": "US",
      "region": "Texas",
      "lat": 30.481957,
      "lon": -97.789574,
      "url": "https://cctv.austinmobility.io/image/3.jpg",
      "provider": "Austin Transportation",
      "timezone": "America/Chicago"
    },
    {
      "name": "35TH ST / PECOS ST",
      "country": "US",
      "region": "Texas",
      "lat": 30.31354,
      "lon": -97.76716,
      "url": "https://cctv.austinmobility.io/image/4.jpg",
      "provider": "Austin Transportation",
      "timezone": "America/Chicago"
    },
    {
      "name": "MARTIN LUTHER KING JR BLVD / RIO GRANDE ST",
      "country": "US",
      "region": "Texas",
      "lat": 30.282545,
      "lon": -97.744835,
      "url": "https://cctv.austinmobility.io/image/5.jpg",
      "provider": "Austin Transportation",
      "timezone": "America/Chicago"
    },
    {
      "name": "LAVACA ST / 3RD ST",
      "country": "US",
      "region": "Texas",
      "lat": 30.26593,
      "lon": -97.746246,
      "url": "https://cctv.austinmobility.io/image/6.jpg",
      "provider": "Austin Transportation",
      "timezone": "America/Chicago"
    },
    {
      "name": "PEARCE LN / KELLAM RD",
      "country": "US",
      "region": "Texas",
      "lat": 30.163688,
      "lon": -97.611196,
      "url": "https://cctv.austinmobility.io/image/7.jpg",
      "provider": "Austin Transportation",
      "timezone": "America/Chicago"
    },
    {
      "name": "WEST GATE BLVD / WILLIAM CANNON DR",
      "country": "US",
      "region": "Texas",
      "lat": 30.207201,
      "lon": -97.815392,
      "url": "https://cctv.austinmobility.io/image/8.jpg",
      "provider": "Austin Transportation",
      "timezone": "America/Chicago"
    },
    {
      "name": "ESCARPMENT BLVD / WILLIAM CANNON DR",
      "country": "US",
      "region": "Texas",
      "lat": 30.229994,
      "lon": -97.864548,
      "url": "https://cctv.austinmobility.io/image/9.jpg",
      "provider": "Austin Transportation",
      "timezone": "America/Chicago"
    },
    {
      "name": "35TH ST / JACKSON AVE",
      "country": "US",
      "region": "Texas",
      "lat": 30.308735,
      "lon": -97.75589,
      "url": "https://cctv.austinmobility.io/image/10.jpg",
      "provider": "Austin Transportation",
      "timezone": "America/Chicago"
    },
    {
      "name": "ESCARPMENT BLVD / SLAUGHTER LN",
      "country": "US",
      "region": "Texas",
      "lat": 30.2006,
      "lon": -97.878426,
      "url": "https://cctv.austinmobility.io/image/11.jpg",
      "provider": "Austin Transportation",
      "timezone": "America/Chicago"
    },
    {
      "name": "ROSS RD / SAINT THOMAS DR",
      "country": "US",
      "region": "Texas",
      "lat": 30.178305,
      "lon": -97.615196,
      "url": "https://cctv.austinmobility.io/image/12.jpg",
      "provider": "Austin Transportation",
      "timezone": "America/Chicago"
    },
    {
      "name": "RIVERSIDE DR / ROYAL CREST DR",
      "country": "US",
      "region": "Texas",
      "lat": 30.241785,
      "lon": -97.728287,
      "url": "https://cctv.austinmobility.io/image/13.jpg",
      "provider": "Austin Transportation",
      "timezone": "America/Chicago"
    },
    {
      "name": "OLTORF ST / PLEASANT VALLEY RD",
      "country": "US",
      "region": "Texas",
      "lat": 30.227459,
      "lon": -97.727768,
      "url": "https://cctv.austinmobility.io/image/14.jpg",
      "provider": "Austin Transportation",
      "timezone": "America/Chicago"
    },
    {
      "name": "MENCHACA RD / STASSNEY LN",
      "country": "US",
      "region": "Texas",
      "lat": 30.215431,
      "lon": -97.797707,
      "url": "https://cctv.austinmobility.io/image/15.jpg",
      "provider": "Austin Transportation",
      "timezone": "America/Chicago"
    },
    {
      "name": "US 290 HWY SVRD / MOPAC EXPY SVRD",
      "country": "US",
      "region": "Texas",
      "lat": 30.234686,
      "lon": -97.82412,
      "url": "https://cctv.austinmobility.io/image/16.jpg",
      "provider": "Austin Transportation",
      "timezone": "America/Chicago"
    },
    {
      "name": "SPICEWOOD SPRINGS RD / MOPAC EXPY SVRD",
      "country": "US",
      "region": "Texas",
      "lat": 30.361263,
      "lon": -97.745232,
      "url": "https://cctv.austinmobility.io/image/17.jpg",
      "provider": "Austin Transportation",
      "timezone": "America/Chicago"
    },
    {
      "name": "MOPAC EXPY / SLAUGHTER LN",
      "country": "US",
      "region": "Texas",
      "lat": 30.200567,
      "lon": -97.865456,
      "url": "https://cctv.austinmobility.io/image/18.jpg",
      "provider": "Austin Transportation",
      "timezone": "America/Chicago"
    },
    {
      "name": "BRAKER LN / LAMAR BLVD",
      "country": "US",
      "region": "Texas",
      "lat": 30.381935,
      "lon": -97.686371,
      "url": "https://cctv.austinmobility.io/image/19.jpg",
      "provider": "Austin Transportation",
      "timezone": "America/Chicago"
    },
    {
      "name": "BURNET RD / PALM WAY (IBM DRIVEWAY)",
      "country": "US",
      "region": "Texas",
      "lat": 30.402287,
      "lon": -97.717606,
      "url": "https://cctv.austinmobility.io/image/20.jpg",
      "provider": "Austin Transportation",
      "timezone": "America/Chicago"
    },
    {
      "name": "BURNET RD / JUSTIN LN",
      "country": "US",
      "region": "Texas",
      "lat": 30.345385,
      "lon": -97.737526,
      "url": "https://cctv.austinmobility.io/image/21.jpg",
      "provider": "Austin Transportation",
      "timezone": "America/Chicago"
    },
    {
      "name": "BURNET RD / 45TH ST",
      "country": "US",
      "region": "Texas",
      "lat": 30.315401,
      "lon": -97.74157,
      "url": "https://cctv.austinmobility.io/image/22.jpg",
      "provider": "Austin Transportation",
      "timezone": "America/Chicago"
    },
    {
      "name": "ANDERSON LN / NORTHCROSS DR",
      "country": "US",
      "region": "Texas",
      "lat": 30.358307,
      "lon": -97.735535,
      "url": "https://cctv.austinmobility.io/image/24.jpg",
      "provider": "Austin Transportation",
      "timezone": "America/Chicago"
    },
    {
      "name": "AIRPORT BLVD / 51ST ST",
      "country": "US",
      "region": "Texas",
      "lat": 30.312069,
      "lon": -97.71534,
      "url": "https://cctv.austinmobility.io/image/25.jpg",
      "provider": "Austin Transportation",
      "timezone": "America/Chicago"
    },
    {
      "name": "IH 35 SVRD / ST JOHNS AVE",
      "country": "US",
      "region": "Texas",
      "lat": 30.332656,
      "lon": -97.703764,
      "url": "https://cctv.austinmobility.io/image/28.jpg",
      "provider": "Austin Transportation",
      "timezone": "America/Chicago"
    },
    {
      "name": "3RD ST / BOWIE ST (SPRING CONDOS - WEST)",
      "country": "US",
      "region": "Texas",
      "lat": 30.268963,
      "lon": -97.754318,
      "url": "https://cctv.austinmobility.io/image/30.jpg",
      "provider": "Austin Transportation",
      "timezone": "America/Chicago"
    },
    {
      "name": "BARTON SPRINGS RD / RIVERSIDE DR (OTC - NORTHWEST)",
      "country": "US",
      "region": "Texas",
      "lat": 30.257478,
      "lon": -97.748989,
      "url": "https://cctv.austinmobility.io/image/31.jpg",
      "provider": "Austin Transportation",
      "timezone": "America/Chicago"
    },
    {
      "name": "BARTON SPRINGS RD / RIVERSIDE DR (OTC - NORTHEAST)",
      "country": "US",
      "region": "Texas",
      "lat": 30.257391,
      "lon": -97.749041,
      "url": "https://cctv.austinmobility.io/image/32.jpg",
      "provider": "Austin Transportation",
      "timezone": "America/Chicago"
    },
    {
      "name": "SAN JACINTO BLVD / 7TH ST (OMNI - SOUTHWEST)",
      "country": "US",
      "region": "Texas",
      "lat": 30.268688,
      "lon": -97.740692,
      "url": "https://cctv.austinmobility.io/image/33.jpg",
      "provider": "Austin Transportation",
      "timezone": "America/Chicago"
    },
    {
      "name": "SAN JACINTO BLVD / 7TH ST (OMNI - SOUTHEAST)",
      "country": "US",
      "region": "Texas",
      "lat": 30.268596,
      "lon": -97.740235,
      "url": "https://cctv.austinmobility.io/image/34.jpg",
      "provider": "Austin Transportation",
      "timezone": "America/Chicago"
    },
    {
      "name": "SAN JACINTO BLVD / 7TH ST (OMNI - NORTH)",
      "country": "US",
      "region": "Texas",
      "lat": 30.269174,
      "lon": -97.740043,
      "url": "https://cctv.austinmobility.io/image/35.jpg",
      "provider": "Austin Transportation",
      "timezone": "America/Chicago"
    },
    {
      "name": "LAMAR BLVD / SHOAL CREEK BLVD (LAMAR / 27TH)",
      "country": "US",
      "region": "Texas",
      "lat": 30.292496,
      "lon": -97.747347,
      "url": "https://cctv.austinmobility.io/image/37.jpg",
      "provider": "Austin Transportation",
      "timezone": "America/Chicago"
    },
    {
      "name": "CESAR CHAVEZ ST / SAN JACINTO BLVD (FOUR SEASONS - WEST)",
      "country": "US",
      "region": "Texas",
      "lat": 30.261807,
      "lon": -97.74283,
      "url": "https://cctv.austinmobility.io/image/39.jpg",
      "provider": "Austin Transportation",
      "timezone": "America/Chicago"
    },
    {
      "name": "CESAR CHAVEZ ST / SAN JACINTO BLVD (FOUR SEASONS - EAST)",
      "country": "US",
      "region": "Texas",
      "lat": 30.261684,
      "lon": -97.742403,
      "url": "https://cctv.austinmobility.io/image/40.jpg",
      "provider": "Austin Transportation",
      "timezone": "America/Chicago"
    },
    {
      "name": "FM 973 RD / 812 RD",
      "country": "US",
      "region": "Texas",
      "lat": 30.15286,
      "lon": -97.670519,
      "url": "https://cctv.austinmobility.io/image/41.jpg",
      "provider": "Austin Transportation",
      "timezone": "America/Chicago"
    },
    {
      "name": "CIRCUIT OF THE AMERICAS BLVD / 812 RD (COTA SOUTH  GATE)",
      "country": "US",
      "region": "Texas",
      "lat": 30.132037,
      "lon": -97.647147,
      "url": "https://cctv.austinmobility.io/image/45.jpg",
      "provider": "Austin Transportation",
      "timezone": "America/Chicago"
    },
    {
      "name": "CIRCUIT OF THE AMERICAS BLVD / ELROY RD (COTA NORTH GATE)",
      "country": "US",
      "region": "Texas",
      "lat": 30.146154,
      "lon": -97.623441,
      "url": "https://cctv.austinmobility.io/image/46.jpg",
      "provider": "Austin Transportation",
      "timezone": "America/Chicago"
    },
    {
      "name": "FM 973 RD / BURLESON RD",
      "country": "US",
      "region": "Texas",
      "lat": 30.167316,
      "lon": -97.659321,
      "url": "https://cctv.austinmobility.io/image/48.jpg",
      "provider": "Austin Transportation",
      "timezone": "America/Chicago"
    },
    {
      "name": "CESAR CHAVEZ ST / BRAZOS ST (BRAZOS GARAGE)",
      "country": "US",
      "region": "Texas",
      "lat": 30.263094,
      "lon": -97.743067,
      "url": "https://cctv.austinmobility.io/image/50.jpg",
      "provider": "Austin Transportation",
      "timezone": "America/Chicago"
    },
    {
      "name": "CONGRESS AVE / 2ND ST (AUSTONIAN - SOUTHWEST)",
      "country": "US",
      "region": "Texas",
      "lat": 30.264593,
      "lon": -97.744895,
      "url": "https://cctv.austinmobility.io/image/51.jpg",
      "provider": "Austin Transportation",
      "timezone": "America/Chicago"
    },
    {
      "name": "CONGRESS AVE / 2ND ST (AUSTONIAN - NORTHWEST)",
      "country": "US",
      "region": "Texas",
      "lat": 30.264923,
      "lon": -97.744886,
      "url": "https://cctv.austinmobility.io/image/52.jpg",
      "provider": "Austin Transportation",
      "timezone": "America/Chicago"
    },
    {
      "name": "TOOMEY RD / JESSIE ST (ATD TOOMEY PARKING LOT)",
      "country": "US",
      "region": "Texas",
      "lat": 30.263474,
      "lon": -97.758894,
      "url": "https://cctv.austinmobility.io/image/54.jpg",
      "provider": "Austin Transportation",
      "timezone": "America/Chicago"
    },
    {
      "name": "FM 973 RD / PEARCE LN",
      "country": "US",
      "region": "Texas",
      "lat": 30.180695,
      "lon": -97.64675,
      "url": "https://cctv.austinmobility.io/image/55.jpg",
      "provider": "Austin Transportation",
      "timezone": "America/Chicago"
    },
    {
      "name": "GUADALUPE ST / 15TH ST",
      "country": "US",
      "region": "Texas",
      "lat": 30.2779,
      "lon": -97.743,
      "url": "https://cctv.austinmobility.io/image/56.jpg",
      "provider": "Austin Transportation",
      "timezone": "America/Chicago"
    },
    {
      "name": "GUADALUPE ST / LAMAR BLVD",
      "country": "US",
      "region": "Texas",
      "lat": 30.316647,
      "lon": -97.732246,
      "url": "https://cctv.austinmobility.io/image/57.jpg",
      "provider": "Austin Transportation",
      "timezone": "America/Chicago"
    },
    {
      "name": "KOENIG LN / LAMAR BLVD",
      "country": "US",
      "region": "Texas",
      "lat": 30.325943,
      "lon": -97.726334,
      "url": "https://cctv.austinmobility.io/image/58.jpg",
      "provider": "Austin Transportation",
      "timezone": "America/Chicago"
    },
    {
      "name": "AIRPORT BLVD / LAMAR BLVD",
      "country": "US",
      "region": "Texas",
      "lat": 30.337629,
      "lon": -97.718872,
      "url": "https://cctv.austinmobility.io/image/59.jpg",
      "provider": "Austin Transportation",
      "timezone": "America/Chicago"
    },
    {
      "name": "AIRPORT BLVD / DENSON DR",
      "country": "US",
      "region": "Texas",
      "lat": 30.327032,
      "lon": -97.71608,
      "url": "https://cctv.austinmobility.io/image/60.jpg",
      "provider": "Austin Transportation",
      "timezone": "America/Chicago"
    },
    {
      "name": "GUADALUPE ST / MARTIN LUTHER KING JR BLVD",
      "country": "US",
      "region": "Texas",
      "lat": 30.281733,
      "lon": -97.741928,
      "url": "https://cctv.austinmobility.io/image/61.jpg",
      "provider": "Austin Transportation",
      "timezone": "America/Chicago"
    },
    {
      "name": "BLK (NW Corner)",
      "country": "US",
      "region": "Texas",
      "lat": 30.281803,
      "lon": -97.742011,
      "url": "https://cctv.austinmobility.io/image/62.jpg",
      "provider": "Austin Transportation",
      "timezone": "America/Chicago"
    },
    {
      "name": "LAVACA ST / MARTIN LUTHER KING JR BLVD",
      "country": "US",
      "region": "Texas",
      "lat": 30.281328,
      "lon": -97.740509,
      "url": "https://cctv.austinmobility.io/image/63.jpg",
      "provider": "Austin Transportation",
      "timezone": "America/Chicago"
    },
    {
      "name": "MARTIN LUTHER KING JR BLVD / CONGRESS AVE (MLK/Capitol Mall)",
      "country": "US",
      "region": "Texas",
      "lat": 30.280687,
      "lon": -97.738106,
      "url": "https://cctv.austinmobility.io/image/64.jpg",
      "provider": "Austin Transportation",
      "timezone": "America/Chicago"
    },
    {
      "name": "MARTIN LUTHER KING JR BLVD / TRINITY ST",
      "country": "US",
      "region": "Texas",
      "lat": 30.279638,
      "lon": -97.734512,
      "url": "https://cctv.austinmobility.io/image/65.jpg",
      "provider": "Austin Transportation",
      "timezone": "America/Chicago"
    },
    {
      "name": "MARTIN LUTHER KING JR BLVD / RED RIVER ST",
      "country": "US",
      "region": "Texas",
      "lat": 30.278975,
      "lon": -97.732193,
      "url": "https://cctv.austinmobility.io/image/66.jpg",
      "provider": "Austin Transportation",
      "timezone": "America/Chicago"
    },
    {
      "name": "MARTIN LUTHER KING JR BLVD / 35 SVRD",
      "country": "US",
      "region": "Texas",
      "lat": 30.278559,
      "lon": -97.730484,
      "url": "https://cctv.austinmobility.io/image/67.jpg",
      "provider": "Austin Transportation",
      "timezone": "America/Chicago"
    },
    {
      "name": "GUADALUPE ST / 21ST ST",
      "country": "US",
      "region": "Texas",
      "lat": 30.283796,
      "lon": -97.741905,
      "url": "https://cctv.austinmobility.io/image/68.jpg",
      "provider": "Austin Transportation",
      "timezone": "America/Chicago"
    },
    {
      "name": "GUADALUPE ST / 24TH ST",
      "country": "US",
      "region": "Texas",
      "lat": 30.28772,
      "lon": -97.741547,
      "url": "https://cctv.austinmobility.io/image/69.jpg",
      "provider": "Austin Transportation",
      "timezone": "America/Chicago"
    },
    {
      "name": "38TH ST / GUADALUPE ST",
      "country": "US",
      "region": "Texas",
      "lat": 30.302742,
      "lon": -97.738144,
      "url": "https://cctv.austinmobility.io/image/71.jpg",
      "provider": "Austin Transportation",
      "timezone": "America/Chicago"
    },
    {
      "name": "GUADALUPE ST / 45TH ST",
      "country": "US",
      "region": "Texas",
      "lat": 30.310843,
      "lon": -97.732979,
      "url": "https://cctv.austinmobility.io/image/72.jpg",
      "provider": "Austin Transportation",
      "timezone": "America/Chicago"
    },
    {
      "name": "MARTIN LUTHER KING JR BLVD / CHESTNUT AVE",
      "country": "US",
      "region": "Texas",
      "lat": 30.280438,
      "lon": -97.71727,
      "url": "https://cctv.austinmobility.io/image/73.jpg",
      "provider": "Austin Transportation",
      "timezone": "America/Chicago"
    },
    {
      "name": "DEAN KEETON ST / SAN JACINTO BLVD",
      "country": "US",
      "region": "Texas",
      "lat": 30.289316,
      "lon": -97.734612,
      "url": "https://cctv.austinmobility.io/image/74.jpg",
      "provider": "Austin Transportation",
      "timezone": "America/Chicago"
    },
    {
      "name": "38TH HALF ST / 35 SVRD",
      "country": "US",
      "region": "Texas",
      "lat": 30.294981,
      "lon": -97.719772,
      "url": "https://cctv.austinmobility.io/image/76.jpg",
      "provider": "Austin Transportation",
      "timezone": "America/Chicago"
    },
    {
      "name": "RED RIVER ST / 38TH HALF ST",
      "country": "US",
      "region": "Texas",
      "lat": 30.296543,
      "lon": -97.723145,
      "url": "https://cctv.austinmobility.io/image/77.jpg",
      "provider": "Austin Transportation",
      "timezone": "America/Chicago"
    },
    {
      "name": "DEAN KEETON ST / RED RIVER ST",
      "country": "US",
      "region": "Texas",
      "lat": 30.287167,
      "lon": -97.726746,
      "url": "https://cctv.austinmobility.io/image/78.jpg",
      "provider": "Austin Transportation",
      "timezone": "America/Chicago"
    },
    {
      "name": "RED RIVER ST / CLYDE LITTLEFIELD DR",
      "country": "US",
      "region": "Texas",
      "lat": 30.283228,
      "lon": -97.727966,
      "url": "https://cctv.austinmobility.io/image/79.jpg",
      "provider": "Austin Transportation",
      "timezone": "America/Chicago"
    },
    {
      "name": "ANDERSON LN / BURNET RD",
      "country": "US",
      "region": "Texas",
      "lat": 30.356154,
      "lon": -97.730896,
      "url": "https://cctv.austinmobility.io/image/80.jpg",
      "provider": "Austin Transportation",
      "timezone": "America/Chicago"
    },
    {
      "name": "ALLANDALE RD / BURNET RD (KOENIG LN)",
      "country": "US",
      "region": "Texas",
      "lat": 30.334852,
      "lon": -97.739822,
      "url": "https://cctv.austinmobility.io/image/82.jpg",
      "provider": "Austin Transportation",
      "timezone": "America/Chicago"
    },
    {
      "name": "BURNET RD / NORTH LOOP BLVD",
      "country": "US",
      "region": "Texas",
      "lat": 30.325851,
      "lon": -97.739616,
      "url": "https://cctv.austinmobility.io/image/83.jpg",
      "provider": "Austin Transportation",
      "timezone": "America/Chicago"
    },
    {
      "name": "ANDERSON LN / SHOAL CREEK BLVD",
      "country": "US",
      "region": "Texas",
      "lat": 30.361021,
      "lon": -97.740845,
      "url": "https://cctv.austinmobility.io/image/86.jpg",
      "provider": "Austin Transportation",
      "timezone": "America/Chicago"
    },
    {
      "name": "LAMAR BLVD / 45TH ST",
      "country": "US",
      "region": "Texas",
      "lat": 30.313463,
      "lon": -97.737595,
      "url": "https://cctv.austinmobility.io/image/88.jpg",
      "provider": "Austin Transportation",
      "timezone": "America/Chicago"
    },
    {
      "name": "38TH ST / LAMAR BLVD",
      "country": "US",
      "region": "Texas",
      "lat": 30.305197,
      "lon": -97.74305,
      "url": "https://cctv.austinmobility.io/image/89.jpg",
      "provider": "Austin Transportation",
      "timezone": "America/Chicago"
    },
    {
      "name": "LAMAR BLVD / 29TH ST",
      "country": "US",
      "region": "Texas",
      "lat": 30.298136,
      "lon": -97.748474,
      "url": "https://cctv.austinmobility.io/image/90.jpg",
      "provider": "Austin Transportation",
      "timezone": "America/Chicago"
    },
    {
      "name": "LAMAR BLVD / 24TH ST",
      "country": "US",
      "region": "Texas",
      "lat": 30.288534,
      "lon": -97.75277,
      "url": "https://cctv.austinmobility.io/image/92.jpg",
      "provider": "Austin Transportation",
      "timezone": "America/Chicago"
    },
    {
      "name": "LAMAR BLVD / MARTIN LUTHER KING JR BLVD",
      "country": "US",
      "region": "Texas",
      "lat": 30.283602,
      "lon": -97.752075,
      "url": "https://cctv.austinmobility.io/image/93.jpg",
      "provider": "Austin Transportation",
      "timezone": "America/Chicago"
    },
    {
      "name": "LAMAR BLVD / 12TH ST",
      "country": "US",
      "region": "Texas",
      "lat": 30.276897,
      "lon": -97.751396,
      "url": "https://cctv.austinmobility.io/image/94.jpg",
      "provider": "Austin Transportation",
      "timezone": "America/Chicago"
    },
    {
      "name": "6TH ST / LAMAR BLVD",
      "country": "US",
      "region": "Texas",
      "lat": 30.271538,
      "lon": -97.753967,
      "url": "https://cctv.austinmobility.io/image/95.jpg",
      "provider": "Austin Transportation",
      "timezone": "America/Chicago"
    },
    {
      "name": "5TH ST / LAMAR BLVD",
      "country": "US",
      "region": "Texas",
      "lat": 30.27029,
      "lon": -97.754601,
      "url": "https://cctv.austinmobility.io/image/96.jpg",
      "provider": "Austin Transportation",
      "timezone": "America/Chicago"
    },
    {
      "name": "LAMAR BLVD / RIVERSIDE DR",
      "country": "US",
      "region": "Texas",
      "lat": 30.264525,
      "lon": -97.757103,
      "url": "https://cctv.austinmobility.io/image/97.jpg",
      "provider": "Austin Transportation",
      "timezone": "America/Chicago"
    },
    {
      "name": "LAMAR BLVD / BLUEBONNET LN",
      "country": "US",
      "region": "Texas",
      "lat": 30.246923,
      "lon": -97.777184,
      "url": "https://cctv.austinmobility.io/image/99.jpg",
      "provider": "Austin Transportation",
      "timezone": "America/Chicago"
    },
    {
      "name": "LAMAR BLVD / BARTON SPRINGS RD",
      "country": "US",
      "region": "Texas",
      "lat": 30.260862,
      "lon": -97.758522,
      "url": "https://cctv.austinmobility.io/image/100.jpg",
      "provider": "Austin Transportation",
      "timezone": "America/Chicago"
    },
    {
      "name": "BARTON SPRINGS RD / AZIE MORTON RD",
      "country": "US",
      "region": "Texas",
      "lat": 30.264769,
      "lon": -97.764984,
      "url": "https://cctv.austinmobility.io/image/101.jpg",
      "provider": "Austin Transportation",
      "timezone": "America/Chicago"
    },
    {
      "name": "CONGRESS AVE / BARTON SPRINGS RD",
      "country": "US",
      "region": "Texas",
      "lat": 30.259111,
      "lon": -97.74614,
      "url": "https://cctv.austinmobility.io/image/102.jpg",
      "provider": "Austin Transportation",
      "timezone": "America/Chicago"
    },
    {
      "name": "CONGRESS AVE / LIVE OAK ST",
      "country": "US",
      "region": "Texas",
      "lat": 30.241852,
      "lon": -97.752525,
      "url": "https://cctv.austinmobility.io/image/103.jpg",
      "provider": "Austin Transportation",
      "timezone": "America/Chicago"
    },
    {
      "name": "CONGRESS AVE / OLTORF ST",
      "country": "US",
      "region": "Texas",
      "lat": 30.23876,
      "lon": -97.753517,
      "url": "https://cctv.austinmobility.io/image/104.jpg",
      "provider": "Austin Transportation",
      "timezone": "America/Chicago"
    },
    {
      "name": "OLTORF ST / 1ST ST",
      "country": "US",
      "region": "Texas",
      "lat": 30.242111,
      "lon": -97.759621,
      "url": "https://cctv.austinmobility.io/image/105.jpg",
      "provider": "Austin Transportation",
      "timezone": "America/Chicago"
    },
    {
      "name": "CESAR CHAVEZ ST / LAVACA ST",
      "country": "US",
      "region": "Texas",
      "lat": 30.264071,
      "lon": -97.746941,
      "url": "https://cctv.austinmobility.io/image/106.jpg",
      "provider": "Austin Transportation",
      "timezone": "America/Chicago"
    },
    {
      "name": "SAN JACINTO BLVD / 2ND ST",
      "country": "US",
      "region": "Texas",
      "lat": 30.263641,
      "lon": -97.741791,
      "url": "https://cctv.austinmobility.io/image/107.jpg",
      "provider": "Austin Transportation",
      "timezone": "America/Chicago"
    },
    {
      "name": "GUADALUPE ST / 2ND ST",
      "country": "US",
      "region": "Texas",
      "lat": 30.265287,
      "lon": -97.747673,
      "url": "https://cctv.austinmobility.io/image/108.jpg",
      "provider": "Austin Transportation",
      "timezone": "America/Chicago"
    },
    {
      "name": "CONGRESS AVE / 2ND ST",
      "country": "US",
      "region": "Texas",
      "lat": 30.26432,
      "lon": -97.744194,
      "url": "https://cctv.austinmobility.io/image/109.jpg",
      "provider": "Austin Transportation",
      "timezone": "America/Chicago"
    },
    {
      "name": "AIRPORT BLVD / SPRINGDALE RD",
      "country": "US",
      "region": "Texas",
      "lat": 30.26561,
      "lon": -97.695511,
      "url": "https://cctv.austinmobility.io/image/110.jpg",
      "provider": "Austin Transportation",
      "timezone": "America/Chicago"
    },
    {
      "name": "AIRPORT BLVD / MARTIN LUTHER KING JR BLVD",
      "country": "US",
      "region": "Texas",
      "lat": 30.282572,
      "lon": -97.703949,
      "url": "https://cctv.austinmobility.io/image/111.jpg",
      "provider": "Austin Transportation",
      "timezone": "America/Chicago"
    },
    {
      "name": "AIRPORT BLVD / 45TH ST",
      "country": "US",
      "region": "Texas",
      "lat": 30.303625,
      "lon": -97.715981,
      "url": "https://cctv.austinmobility.io/image/112.jpg",
      "provider": "Austin Transportation",
      "timezone": "America/Chicago"
    },
    {
      "name": "LAMAR BLVD / LAMAR BLVD SVRD (BRODIE OAKS SHOPPING CENTER)",
      "country": "US",
      "region": "Texas",
      "lat": 30.23626,
      "lon": -97.792587,
      "url": "https://cctv.austinmobility.io/image/114.jpg",
      "provider": "Austin Transportation",
      "timezone": "America/Chicago"
    },
    {
      "name": "MENCHACA RD / WILLIAM CANNON DR",
      "country": "US",
      "region": "Texas",
      "lat": 30.202913,
      "lon": -97.806908,
      "url": "https://cctv.austinmobility.io/image/116.jpg",
      "provider": "Austin Transportation",
      "timezone": "America/Chicago"
    },
    {
      "name": "MENCHACA RD / SLAUGHTER LN",
      "country": "US",
      "region": "Texas",
      "lat": 30.173737,
      "lon": -97.823731,
      "url": "https://cctv.austinmobility.io/image/117.jpg",
      "provider": "Austin Transportation",
      "timezone": "America/Chicago"
    },
    {
      "name": "SLAUGHTER LN / 1ST ST",
      "country": "US",
      "region": "Texas",
      "lat": 30.172455,
      "lon": -97.799553,
      "url": "https://cctv.austinmobility.io/image/118.jpg",
      "provider": "Austin Transportation",
      "timezone": "America/Chicago"
    },
    {
      "name": "ENFIELD RD / WINSTED LN",
      "country": "US",
      "region": "Texas",
      "lat": 30.286291,
      "lon": -97.76461,
      "url": "https://cctv.austinmobility.io/image/119.jpg",
      "provider": "Austin Transportation",
      "timezone": "America/Chicago"
    },
    {
      "name": "15TH ST / CONGRESS AVE",
      "country": "US",
      "region": "Texas",
      "lat": 30.276918,
      "lon": -97.739494,
      "url": "https://cctv.austinmobility.io/image/120.jpg",
      "provider": "Austin Transportation",
      "timezone": "America/Chicago"
    },
    {
      "name": "15TH ST / TRINITY ST",
      "country": "US",
      "region": "Texas",
      "lat": 30.275942,
      "lon": -97.736031,
      "url": "https://cctv.austinmobility.io/image/121.jpg",
      "provider": "Austin Transportation",
      "timezone": "America/Chicago"
    },
    {
      "name": "15TH ST / RED RIVER ST",
      "country": "US",
      "region": "Texas",
      "lat": 30.275618,
      "lon": -97.734848,
      "url": "https://cctv.austinmobility.io/image/122.jpg",
      "provider": "Austin Transportation",
      "timezone": "America/Chicago"
    },
    {
      "name": "CONGRESS AVE / ELIZABETH ST",
      "country": "US",
      "region": "Texas",
      "lat": 30.248924,
      "lon": -97.749939,
      "url": "https://cctv.austinmobility.io/image/124.jpg",
      "provider": "Austin Transportation",
      "timezone": "America/Chicago"
    },
    {
      "name": "BARTON SPRINGS RD / DAWSON RD",
      "country": "US",
      "region": "Texas",
      "lat": 30.260344,
      "lon": -97.755707,
      "url": "https://cctv.austinmobility.io/image/125.jpg",
      "provider": "Austin Transportation",
      "timezone": "America/Chicago"
    },
    {
      "name": "CESAR CHAVEZ ST / WALTER SEAHOLM DR",
      "country": "US",
      "region": "Texas",
      "lat": 30.266,
      "lon": -97.75353,
      "url": "https://cctv.austinmobility.io/image/126.jpg",
      "provider": "Austin Transportation",
      "timezone": "America/Chicago"
    },
    {
      "name": "CONGRESS AVE / 11TH ST",
      "country": "US",
      "region": "Texas",
      "lat": 30.272749,
      "lon": -97.741104,
      "url": "https://cctv.austinmobility.io/image/127.jpg",
      "provider": "Austin Transportation",
      "timezone": "America/Chicago"
    },
    {
      "name": "DESSAU RD / BRAKER LN (Shropshire)",
      "country": "US",
      "region": "Texas",
      "lat": 30.377291,
      "lon": -97.658661,
      "url": "https://cctv.austinmobility.io/image/128.jpg",
      "provider": "Austin Transportation",
      "timezone": "America/Chicago"
    },
    {
      "name": "RED RIVER ST / 10TH ST",
      "country": "US",
      "region": "Texas",
      "lat": 30.270227,
      "lon": -97.735771,
      "url": "https://cctv.austinmobility.io/image/129.jpg",
      "provider": "Austin Transportation",
      "timezone": "America/Chicago"
    },
    {
      "name": "LAVACA ST / 4TH ST",
      "country": "US",
      "region": "Texas",
      "lat": 30.266876,
      "lon": -97.745873,
      "url": "https://cctv.austinmobility.io/image/130.jpg",
      "provider": "Austin Transportation",
      "timezone": "America/Chicago"
    },
    {
      "name": "7TH ST / SAN JACINTO BLVD",
      "country": "US",
      "region": "Texas",
      "lat": 30.268295,
      "lon": -97.740036,
      "url": "https://cctv.austinmobility.io/image/131.jpg",
      "provider": "Austin Transportation",
      "timezone": "America/Chicago"
    },
    {
      "name": "6TH ST / LAVACA ST",
      "country": "US",
      "region": "Texas",
      "lat": 30.268717,
      "lon": -97.745201,
      "url": "https://cctv.austinmobility.io/image/132.jpg",
      "provider": "Austin Transportation",
      "timezone": "America/Chicago"
    },
    {
      "name": "6TH ST / CONGRESS AVE",
      "country": "US",
      "region": "Texas",
      "lat": 30.268066,
      "lon": -97.742813,
      "url": "https://cctv.austinmobility.io/image/133.jpg",
      "provider": "Austin Transportation",
      "timezone": "America/Chicago"
    },
    {
      "name": "6TH ST / RED RIVER ST",
      "country": "US",
      "region": "Texas",
      "lat": 30.266476,
      "lon": -97.73719,
      "url": "https://cctv.austinmobility.io/image/134.jpg",
      "provider": "Austin Transportation",
      "timezone": "America/Chicago"
    },
    {
      "name": "5TH ST / BRAZOS ST",
      "country": "US",
      "region": "Texas",
      "lat": 30.266756,
      "lon": -97.741837,
      "url": "https://cctv.austinmobility.io/image/135.jpg",
      "provider": "Austin Transportation",
      "timezone": "America/Chicago"
    },
    {
      "name": "5TH ST / TRINITY ST",
      "country": "US",
      "region": "Texas",
      "lat": 30.266132,
      "lon": -97.739677,
      "url": "https://cctv.austinmobility.io/image/136.jpg",
      "provider": "Austin Transportation",
      "timezone": "America/Chicago"
    },
    {
      "name": "PEARCE LN / ROSS RD",
      "country": "US",
      "region": "Texas",
      "lat": 30.16943,
      "lon": -97.623108,
      "url": "https://cctv.austinmobility.io/image/137.jpg",
      "provider": "Austin Transportation",
      "timezone": "America/Chicago"
    },
    {
      "name": "WEST GATE BLVD / LAMAR BLVD SVRD",
      "country": "US",
      "region": "Texas",
      "lat": 30.231974,
      "lon": -97.800545,
      "url": "https://cctv.austinmobility.io/image/138.jpg",
      "provider": "Austin Transportation",
      "timezone": "America/Chicago"
    },
    {
      "name": "GUADALUPE ST / 4TH ST",
      "country": "US",
      "region": "Texas",
      "lat": 30.267183,
      "lon": -97.746964,
      "url": "https://cctv.austinmobility.io/image/139.jpg",
      "provider": "Austin Transportation",
      "timezone": "America/Chicago"
    },
    {
      "name": "1ST ST / POWELL CIR",
      "country": "US",
      "region": "Texas",
      "lat": 30.235273,
      "lon": -97.763954,
      "url": "https://cctv.austinmobility.io/image/141.jpg",
      "provider": "Austin Transportation",
      "timezone": "America/Chicago"
    },
    {
      "name": "7TH ST / 35 SVRD",
      "country": "US",
      "region": "Texas",
      "lat": 30.266821,
      "lon": -97.734665,
      "url": "https://cctv.austinmobility.io/image/143.jpg",
      "provider": "Austin Transportation",
      "timezone": "America/Chicago"
    },
    {
      "name": "RIVERSIDE DR / FARO DR",
      "country": "US",
      "region": "Texas",
      "lat": 30.229511,
      "lon": -97.712631,
      "url": "https://cctv.austinmobility.io/image/144.jpg",
      "provider": "Austin Transportation",
      "timezone": "America/Chicago"
    },
    {
      "name": "11TH ST / 35 SVRD",
      "country": "US",
      "region": "Texas",
      "lat": 30.270329,
      "lon": -97.732475,
      "url": "https://cctv.austinmobility.io/image/145.jpg",
      "provider": "Austin Transportation",
      "timezone": "America/Chicago"
    },
    {
      "name": "7TH ST / CHICON ST",
      "country": "US",
      "region": "Texas",
      "lat": 30.262577,
      "lon": -97.722115,
      "url": "https://cctv.austinmobility.io/image/147.jpg",
      "provider": "Austin Transportation",
      "timezone": "America/Chicago"
    },
    {
      "name": "7TH ST / PROSPECT AVE",
      "country": "US",
      "region": "Texas",
      "lat": 30.261475,
      "lon": -97.717461,
      "url": "https://cctv.austinmobility.io/image/148.jpg",
      "provider": "Austin Transportation",
      "timezone": "America/Chicago"
    },
    {
      "name": "7TH ST / PLEASANT VALLEY RD",
      "country": "US",
      "region": "Texas",
      "lat": 30.260126,
      "lon": -97.709496,
      "url": "https://cctv.austinmobility.io/image/149.jpg",
      "provider": "Austin Transportation",
      "timezone": "America/Chicago"
    },
    {
      "name": "CESAR CHAVEZ ST / PLEASANT VALLEY RD",
      "country": "US",
      "region": "Texas",
      "lat": 30.252989,
      "lon": -97.712784,
      "url": "https://cctv.austinmobility.io/image/150.jpg",
      "provider": "Austin Transportation",
      "timezone": "America/Chicago"
    },
    {
      "name": "7TH ST / SPRINGDALE RD",
      "country": "US",
      "region": "Texas",
      "lat": 30.256037,
      "lon": -97.701675,
      "url": "https://cctv.austinmobility.io/image/151.jpg",
      "provider": "Austin Transportation",
      "timezone": "America/Chicago"
    },
    {
      "name": "OLTORF ST / 35 SVRD",
      "country": "US",
      "region": "Texas",
      "lat": 30.233851,
      "lon": -97.741653,
      "url": "https://cctv.austinmobility.io/image/153.jpg",
      "provider": "Austin Transportation",
      "timezone": "America/Chicago"
    },
    {
      "name": "RIVERSIDE DR / 35 SVRD",
      "country": "US",
      "region": "Texas",
      "lat": 30.247843,
      "lon": -97.734886,
      "url": "https://cctv.austinmobility.io/image/154.jpg",
      "provider": "Austin Transportation",
      "timezone": "America/Chicago"
    },
    {
      "name": "PLEASANT VALLEY RD / RIVERSIDE DR",
      "country": "US",
      "region": "Texas",
      "lat": 30.234114,
      "lon": -97.722809,
      "url": "https://cctv.austinmobility.io/image/155.jpg",
      "provider": "Austin Transportation",
      "timezone": "America/Chicago"
    },
    {
      "name": "1ST ST / ST ELMO RD",
      "country": "US",
      "region": "Texas",
      "lat": 30.221043,
      "lon": -97.772881,
      "url": "https://cctv.austinmobility.io/image/156.jpg",
      "provider": "Austin Transportation",
      "timezone": "America/Chicago"
    },
    {
      "name": "WILLIAM CANNON DR / 1ST ST",
      "country": "US",
      "region": "Texas",
      "lat": 30.197098,
      "lon": -97.787819,
      "url": "https://cctv.austinmobility.io/image/157.jpg",
      "provider": "Austin Transportation",
      "timezone": "America/Chicago"
    },
    {
      "name": "CONGRESS AVE / EBERHART LN",
      "country": "US",
      "region": "Texas",
      "lat": 30.197027,
      "lon": -97.777123,
      "url": "https://cctv.austinmobility.io/image/158.jpg",
      "provider": "Austin Transportation",
      "timezone": "America/Chicago"
    },
    {
      "name": "WILLIAM CANNON DR / 35 SVRD",
      "country": "US",
      "region": "Texas",
      "lat": 30.190245,
      "lon": -97.770111,
      "url": "https://cctv.austinmobility.io/image/159.jpg",
      "provider": "Austin Transportation",
      "timezone": "America/Chicago"
    },
    {
      "name": "WILLIAM CANNON DR / BLUFF SPRINGS RD",
      "country": "US",
      "region": "Texas",
      "lat": 30.189196,
      "lon": -97.767891,
      "url": "https://cctv.austinmobility.io/image/160.jpg",
      "provider": "Austin Transportation",
      "timezone": "America/Chicago"
    },
    {
      "name": "BRODIE LN / WILLIAM CANNON DR",
      "country": "US",
      "region": "Texas",
      "lat": 30.213778,
      "lon": -97.830383,
      "url": "https://cctv.austinmobility.io/image/163.jpg",
      "provider": "Austin Transportation",
      "timezone": "America/Chicago"
    },
    {
      "name": "CAPITAL OF TEXAS HWY / WEST GATE BLVD",
      "country": "US",
      "region": "Texas",
      "lat": 30.242195,
      "lon": -97.801109,
      "url": "https://cctv.austinmobility.io/image/165.jpg",
      "provider": "Austin Transportation",
      "timezone": "America/Chicago"
    },
    {
      "name": "STASSNEY LN / 35 SVRD",
      "country": "US",
      "region": "Texas",
      "lat": 30.198195,
      "lon": -97.763657,
      "url": "https://cctv.austinmobility.io/image/166.jpg",
      "provider": "Austin Transportation",
      "timezone": "America/Chicago"
    },
    {
      "name": "LAKE AUSTIN BLVD / ATLANTA ST",
      "country": "US",
      "region": "Texas",
      "lat": 30.277218,
      "lon": -97.770485,
      "url": "https://cctv.austinmobility.io/image/167.jpg",
      "provider": "Austin Transportation",
      "timezone": "America/Chicago"
    },
    {
      "name": "BRODIE LN / SLAUGHTER LN",
      "country": "US",
      "region": "Texas",
      "lat": 30.18355,
      "lon": -97.849793,
      "url": "https://cctv.austinmobility.io/image/168.jpg",
      "provider": "Austin Transportation",
      "timezone": "America/Chicago"
    },
    {
      "name": "FM 2222 RD / NORTHLAND DR",
      "country": "US",
      "region": "Texas",
      "lat": 30.338467,
      "lon": -97.758942,
      "url": "https://cctv.austinmobility.io/image/169.jpg",
      "provider": "Austin Transportation",
      "timezone": "America/Chicago"
    },
    {
      "name": "MOPAC EXPY SVRD / NORTHLAND DR (West)",
      "country": "US",
      "region": "Texas",
      "lat": 30.336784,
      "lon": -97.755959,
      "url": "https://cctv.austinmobility.io/image/170.jpg",
      "provider": "Austin Transportation",
      "timezone": "America/Chicago"
    },
    {
      "name": "METRIC BLVD / PARMER LN",
      "country": "US",
      "region": "Texas",
      "lat": 30.413233,
      "lon": -97.690582,
      "url": "https://cctv.austinmobility.io/image/172.jpg",
      "provider": "Austin Transportation",
      "timezone": "America/Chicago"
    },
    {
      "name": "BRAKER LN / METRIC BLVD",
      "country": "US",
      "region": "Texas",
      "lat": 30.392342,
      "lon": -97.708283,
      "url": "https://cctv.austinmobility.io/image/173.jpg",
      "provider": "Austin Transportation",
      "timezone": "America/Chicago"
    },
    {
      "name": "BRAKER LN / BURNET RD",
      "country": "US",
      "region": "Texas",
      "lat": 30.391165,
      "lon": -97.721809,
      "url": "https://cctv.austinmobility.io/image/174.jpg",
      "provider": "Austin Transportation",
      "timezone": "America/Chicago"
    },
    {
      "name": "BRAKER LN / 35 SVRD",
      "country": "US",
      "region": "Texas",
      "lat": 30.376949,
      "lon": -97.675583,
      "url": "https://cctv.austinmobility.io/image/177.jpg",
      "provider": "Austin Transportation",
      "timezone": "America/Chicago"
    },
    {
      "name": "LAMAR BLVD / RUNDBERG LN",
      "country": "US",
      "region": "Texas",
      "lat": 30.36314,
      "lon": -97.697022,
      "url": "https://cctv.austinmobility.io/image/179.jpg",
      "provider": "Austin Transportation",
      "timezone": "America/Chicago"
    },
    {
      "name": "US 183 HWY / BURLESON RD",
      "country": "US",
      "region": "Texas",
      "lat": 30.18288,
      "lon": -97.68763,
      "url": "https://cctv.austinmobility.io/image/181.jpg",
      "provider": "Austin Transportation",
      "timezone": "America/Chicago"
    },
    {
      "name": "BURLESON RD / SMITH SCHOOL RD",
      "country": "US",
      "region": "Texas",
      "lat": 30.201206,
      "lon": -97.709137,
      "url": "https://cctv.austinmobility.io/image/183.jpg",
      "provider": "Austin Transportation",
      "timezone": "America/Chicago"
    },
    {
      "name": "BEN WHITE BLVD SVRD / WOODWARD ST",
      "country": "US",
      "region": "Texas",
      "lat": 30.215725,
      "lon": -97.744072,
      "url": "https://cctv.austinmobility.io/image/186.jpg",
      "provider": "Austin Transportation",
      "timezone": "America/Chicago"
    },
    {
      "name": "IH 35 SVRD / BEN WHITE BLVD SVRD",
      "country": "US",
      "region": "Texas",
      "lat": 30.215517,
      "lon": -97.751259,
      "url": "https://cctv.austinmobility.io/image/187.jpg",
      "provider": "Austin Transportation",
      "timezone": "America/Chicago"
    },
    {
      "name": "LAMAR BLVD / PARMER LN",
      "country": "US",
      "region": "Texas",
      "lat": 30.407852,
      "lon": -97.678223,
      "url": "https://cctv.austinmobility.io/image/191.jpg",
      "provider": "Austin Transportation",
      "timezone": "America/Chicago"
    },
    {
      "name": "TECH RIDGE BLVD / 35 SVRD (YAGER LN)",
      "country": "US",
      "region": "Texas",
      "lat": 30.39916,
      "lon": -97.673042,
      "url": "https://cctv.austinmobility.io/image/193.jpg",
      "provider": "Austin Transportation",
      "timezone": "America/Chicago"
    },
    {
      "name": "BURLESON RD / MONTOPOLIS DR",
      "country": "US",
      "region": "Texas",
      "lat": 30.205563,
      "lon": -97.716591,
      "url": "https://cctv.austinmobility.io/image/194.jpg",
      "provider": "Austin Transportation",
      "timezone": "America/Chicago"
    },
    {
      "name": "PARMER LN / 35 SVRD",
      "country": "US",
      "region": "Texas",
      "lat": 30.40803,
      "lon": -97.675232,
      "url": "https://cctv.austinmobility.io/image/195.jpg",
      "provider": "Austin Transportation",
      "timezone": "America/Chicago"
    },
    {
      "name": "HOWARD LN / DESSAU RD",
      "country": "US",
      "region": "Texas",
      "lat": 30.40365,
      "lon": -97.638428,
      "url": "https://cctv.austinmobility.io/image/196.jpg",
      "provider": "Austin Transportation",
      "timezone": "America/Chicago"
    },
    {
      "name": "RIVERSIDE DR / MONTOPOLIS DR",
      "country": "US",
      "region": "Texas",
      "lat": 30.224932,
      "lon": -97.703438,
      "url": "https://cctv.austinmobility.io/image/200.jpg",
      "provider": "Austin Transportation",
      "timezone": "America/Chicago"
    },
    {
      "name": "OLTORF ST / MONTOPOLIS DR",
      "country": "US",
      "region": "Texas",
      "lat": 30.215042,
      "lon": -97.710297,
      "url": "https://cctv.austinmobility.io/image/201.jpg",
      "provider": "Austin Transportation",
      "timezone": "America/Chicago"
    },
    {
      "name": "BURLESON RD / MC KINNEY FALLS PKWY",
      "country": "US",
      "region": "Texas",
      "lat": 30.191999,
      "lon": -97.698387,
      "url": "https://cctv.austinmobility.io/image/202.jpg",
      "provider": "Austin Transportation",
      "timezone": "America/Chicago"
    },
    {
      "name": "AIRPORT BLVD / WILSHIRE BLVD",
      "country": "US",
      "region": "Texas",
      "lat": 30.297857,
      "lon": -97.708878,
      "url": "https://cctv.austinmobility.io/image/203.jpg",
      "provider": "Austin Transportation",
      "timezone": "America/Chicago"
    },
    {
      "name": "IH 35 SVRD / 290 HWY SVRD (E Koenig LN)",
      "country": "US",
      "region": "Texas",
      "lat": 30.322704,
      "lon": -97.706085,
      "url": "https://cctv.austinmobility.io/image/204.jpg",
      "provider": "Austin Transportation",
      "timezone": "America/Chicago"
    },
    {
      "name": "RUNDBERG LN / 35 SVRD",
      "country": "US",
      "region": "Texas",
      "lat": 30.358427,
      "lon": -97.688545,
      "url": "https://cctv.austinmobility.io/image/206.jpg",
      "provider": "Austin Transportation",
      "timezone": "America/Chicago"
    },
    {
      "name": "BURLESON RD / EMMA BROWNING AVE",
      "country": "US",
      "region": "Texas",
      "lat": 30.173163,
      "lon": -97.67054,
      "url": "https://cctv.austinmobility.io/image/207.jpg",
      "provider": "Austin Transportation",
      "timezone": "America/Chicago"
    },
    {
      "name": "ANDERSON MILL RD / 183 HWY SVRD",
      "country": "US",
      "region": "Texas",
      "lat": 30.448647,
      "lon": -97.790947,
      "url": "https://cctv.austinmobility.io/image/208.jpg",
      "provider": "Austin Transportation",
      "timezone": "America/Chicago"
    },
    {
      "name": "RED RIVER ST / 4TH ST",
      "country": "US",
      "region": "Texas",
      "lat": 30.264626,
      "lon": -97.737839,
      "url": "https://cctv.austinmobility.io/image/209.jpg",
      "provider": "Austin Transportation",
      "timezone": "America/Chicago"
    },
    {
      "name": "IH 35 SVRD / ANDERSON LN SVRD",
      "country": "US",
      "region": "Texas",
      "lat": 30.339504,
      "lon": -97.700645,
      "url": "https://cctv.austinmobility.io/image/211.jpg",
      "provider": "Austin Transportation",
      "timezone": "America/Chicago"
    },
    {
      "name": "ED BLUESTEIN BLVD / LOYOLA LN",
      "country": "US",
      "region": "Texas",
      "lat": 30.302672,
      "lon": -97.661309,
      "url": "https://cctv.austinmobility.io/image/212.jpg",
      "provider": "Austin Transportation",
      "timezone": "America/Chicago"
    },
    {
      "name": "GREAT HILLS TRL / JOLLYVILLE RD",
      "country": "US",
      "region": "Texas",
      "lat": 30.39419,
      "lon": -97.749703,
      "url": "https://cctv.austinmobility.io/image/214.jpg",
      "provider": "Austin Transportation",
      "timezone": "America/Chicago"
    },
    {
      "name": "JOLLYVILLE RD / OAK KNOLL DR",
      "country": "US",
      "region": "Texas",
      "lat": 30.427557,
      "lon": -97.760071,
      "url": "https://cctv.austinmobility.io/image/215.jpg",
      "provider": "Austin Transportation",
      "timezone": "America/Chicago"
    },
    {
      "name": "FM 969 RD / ED BLUESTEIN BLVD SVRD (Martin Luther King Jr Blvd / US 183)",
      "country": "US",
      "region": "Texas",
      "lat": 30.285421,
      "lon": -97.664047,
      "url": "https://cctv.austinmobility.io/image/216.jpg",
      "provider": "Austin Transportation",
      "timezone": "America/Chicago"
    },
    {
      "name": "MARTIN LUTHER KING JR BLVD / SPRINGDALE RD",
      "country": "US",
      "region": "Texas",
      "lat": 30.285862,
      "lon": -97.682625,
      "url": "https://cctv.austinmobility.io/image/217.jpg",
      "provider": "Austin Transportation",
      "timezone": "America/Chicago"
    },
    {
      "name": "ANDERSON LN SVRD / LAMAR BLVD SVRD",
      "country": "US",
      "region": "Texas",
      "lat": 30.34849,
      "lon": -97.7125,
      "url": "https://cctv.austinmobility.io/image/218.jpg",
      "provider": "Austin Transportation",
      "timezone": "America/Chicago"
    },
    {
      "name": "FM 620 RD / ANDERSON MILL RD",
      "country": "US",
      "region": "Texas",
      "lat": 30.45545,
      "lon": -97.825806,
      "url": "https://cctv.austinmobility.io/image/220.jpg",
      "provider": "Austin Transportation",
      "timezone": "America/Chicago"
    },
    {
      "name": "BRAKER LN / JOLLYVILLE RD",
      "country": "US",
      "region": "Texas",
      "lat": 30.400698,
      "lon": -97.748863,
      "url": "https://cctv.austinmobility.io/image/222.jpg",
      "provider": "Austin Transportation",
      "timezone": "America/Chicago"
    },
    {
      "name": "5701 BLK MC NEIL DR (YMCA)",
      "country": "US",
      "region": "Texas",
      "lat": 30.4464,
      "lon": -97.734291,
      "url": "https://cctv.austinmobility.io/image/223.jpg",
      "provider": "Austin Transportation",
      "timezone": "America/Chicago"
    },
    {
      "name": "MC NEIL RD / HOWARD LN",
      "country": "US",
      "region": "Texas",
      "lat": 30.449053,
      "lon": -97.725586,
      "url": "https://cctv.austinmobility.io/image/224.jpg",
      "provider": "Austin Transportation",
      "timezone": "America/Chicago"
    },
    {
      "name": "ANDERSON MILL RD / PARMER LN",
      "country": "US",
      "region": "Texas",
      "lat": 30.460581,
      "lon": -97.754555,
      "url": "https://cctv.austinmobility.io/image/226.jpg",
      "provider": "Austin Transportation",
      "timezone": "America/Chicago"
    },
    {
      "name": "MC NEIL DR / PARMER LN",
      "country": "US",
      "region": "Texas",
      "lat": 30.44385,
      "lon": -97.742394,
      "url": "https://cctv.austinmobility.io/image/227.jpg",
      "provider": "Austin Transportation",
      "timezone": "America/Chicago"
    },
    {
      "name": "KOENIG LN / GUADALUPE ST",
      "country": "US",
      "region": "Texas",
      "lat": 30.323502,
      "lon": -97.723831,
      "url": "https://cctv.austinmobility.io/image/458.jpg",
      "provider": "Austin Transportation",
      "timezone": "America/Chicago"
    },
    {
      "name": "KOENIG LN / WOODROW AVE",
      "country": "US",
      "region": "Texas",
      "lat": 30.330872,
      "lon": -97.73159,
      "url": "https://cctv.austinmobility.io/image/459.jpg",
      "provider": "Austin Transportation",
      "timezone": "America/Chicago"
    },
    {
      "name": "MOPAC EXPY / NORTHLAND DR (East)",
      "country": "US",
      "region": "Texas",
      "lat": 30.335529,
      "lon": -97.753723,
      "url": "https://cctv.austinmobility.io/image/463.jpg",
      "provider": "Austin Transportation",
      "timezone": "America/Chicago"
    },
    {
      "name": "BURNET RD / WHITE HORSE TRL",
      "country": "US",
      "region": "Texas",
      "lat": 30.33848,
      "lon": -97.73925,
      "url": "https://cctv.austinmobility.io/image/464.jpg",
      "provider": "Austin Transportation",
      "timezone": "America/Chicago"
    },
    {
      "name": "BURNET RD / ADAMS AVE",
      "country": "US",
      "region": "Texas",
      "lat": 30.330071,
      "lon": -97.739891,
      "url": "https://cctv.austinmobility.io/image/465.jpg",
      "provider": "Austin Transportation",
      "timezone": "America/Chicago"
    },
    {
      "name": "BURNET RD / 49TH ST",
      "country": "US",
      "region": "Texas",
      "lat": 30.319857,
      "lon": -97.739227,
      "url": "https://cctv.austinmobility.io/image/466.jpg",
      "provider": "Austin Transportation",
      "timezone": "America/Chicago"
    },
    {
      "name": "BURNET RD / NORTHCROSS DR",
      "country": "US",
      "region": "Texas",
      "lat": 30.352217,
      "lon": -97.733246,
      "url": "https://cctv.austinmobility.io/image/467.jpg",
      "provider": "Austin Transportation",
      "timezone": "America/Chicago"
    },
    {
      "name": "BURNET RD / STECK AVE",
      "country": "US",
      "region": "Texas",
      "lat": 30.361847,
      "lon": -97.72934,
      "url": "https://cctv.austinmobility.io/image/468.jpg",
      "provider": "Austin Transportation",
      "timezone": "America/Chicago"
    },
    {
      "name": "BURNET RD / RUTLAND DR",
      "country": "US",
      "region": "Texas",
      "lat": 30.383427,
      "lon": -97.724075,
      "url": "https://cctv.austinmobility.io/image/469.jpg",
      "provider": "Austin Transportation",
      "timezone": "America/Chicago"
    },
    {
      "name": "BURNET RD / KRAMER LN",
      "country": "US",
      "region": "Texas",
      "lat": 30.395203,
      "lon": -97.720398,
      "url": "https://cctv.austinmobility.io/image/470.jpg",
      "provider": "Austin Transportation",
      "timezone": "America/Chicago"
    },
    {
      "name": "BURNET RD / GAULT LN",
      "country": "US",
      "region": "Texas",
      "lat": 30.404934,
      "lon": -97.716049,
      "url": "https://cctv.austinmobility.io/image/471.jpg",
      "provider": "Austin Transportation",
      "timezone": "America/Chicago"
    },
    {
      "name": "BURNET RD / ESPERANZA XING",
      "country": "US",
      "region": "Texas",
      "lat": 30.398321,
      "lon": -97.719322,
      "url": "https://cctv.austinmobility.io/image/472.jpg",
      "provider": "Austin Transportation",
      "timezone": "America/Chicago"
    },
    {
      "name": "METRIC BLVD / RUNDBERG LN",
      "country": "US",
      "region": "Texas",
      "lat": 30.375181,
      "lon": -97.719727,
      "url": "https://cctv.austinmobility.io/image/473.jpg",
      "provider": "Austin Transportation",
      "timezone": "America/Chicago"
    },
    {
      "name": "RUNDBERG LN / PARKFIELD DR",
      "country": "US",
      "region": "Texas",
      "lat": 30.367405,
      "lon": -97.706245,
      "url": "https://cctv.austinmobility.io/image/474.jpg",
      "provider": "Austin Transportation",
      "timezone": "America/Chicago"
    },
    {
      "name": "RUNDBERG LN / COLLINFIELD DR",
      "country": "US",
      "region": "Texas",
      "lat": 30.365328,
      "lon": -97.701653,
      "url": "https://cctv.austinmobility.io/image/475.jpg",
      "provider": "Austin Transportation",
      "timezone": "America/Chicago"
    },
    {
      "name": "RUNDBERG LN / GEORGIAN DR",
      "country": "US",
      "region": "Texas",
      "lat": 30.36083,
      "lon": -97.693405,
      "url": "https://cctv.austinmobility.io/image/476.jpg",
      "provider": "Austin Transportation",
      "timezone": "America/Chicago"
    },
    {
      "name": "RUNDBERG LN / NORTH PLZ",
      "country": "US",
      "region": "Texas",
      "lat": 30.355965,
      "lon": -97.684334,
      "url": "https://cctv.austinmobility.io/image/477.jpg",
      "provider": "Austin Transportation",
      "timezone": "America/Chicago"
    },
    {
      "name": "FM 2222 RD / PARK CENTRE",
      "country": "US",
      "region": "Texas",
      "lat": 30.382252,
      "lon": -97.813118,
      "url": "https://cctv.austinmobility.io/image/478.jpg",
      "provider": "Austin Transportation",
      "timezone": "America/Chicago"
    },
    {
      "name": "FM 2222 RD / BELL MOUNTAIN DR",
      "country": "US",
      "region": "Texas",
      "lat": 30.37719,
      "lon": -97.805458,
      "url": "https://cctv.austinmobility.io/image/479.jpg",
      "provider": "Austin Transportation",
      "timezone": "America/Chicago"
    },
    {
      "name": "FM 2222 RD / JESTER BLVD",
      "country": "US",
      "region": "Texas",
      "lat": 30.369497,
      "lon": -97.801994,
      "url": "https://cctv.austinmobility.io/image/480.jpg",
      "provider": "Austin Transportation",
      "timezone": "America/Chicago"
    },
    {
      "name": "FM 2222 RD / CITY PARK RD",
      "country": "US",
      "region": "Texas",
      "lat": 30.365801,
      "lon": -97.79744,
      "url": "https://cctv.austinmobility.io/image/481.jpg",
      "provider": "Austin Transportation",
      "timezone": "America/Chicago"
    },
    {
      "name": "FM 2222 RD / MESA DR",
      "country": "US",
      "region": "Texas",
      "lat": 30.341314,
      "lon": -97.769638,
      "url": "https://cctv.austinmobility.io/image/482.jpg",
      "provider": "Austin Transportation",
      "timezone": "America/Chicago"
    },
    {
      "name": "FM 2222 RD / DRY CREEK DR",
      "country": "US",
      "region": "Texas",
      "lat": 30.342556,
      "lon": -97.762993,
      "url": "https://cctv.austinmobility.io/image/483.jpg",
      "provider": "Austin Transportation",
      "timezone": "America/Chicago"
    },
    {
      "name": "FM 620 RD / HATCH RD",
      "country": "US",
      "region": "Texas",
      "lat": 30.460848,
      "lon": -97.819923,
      "url": "https://cctv.austinmobility.io/image/486.jpg",
      "provider": "Austin Transportation",
      "timezone": "America/Chicago"
    },
    {
      "name": "FM 620 RD / DEERBROOK TRL",
      "country": "US",
      "region": "Texas",
      "lat": 30.46389,
      "lon": -97.810623,
      "url": "https://cctv.austinmobility.io/image/487.jpg",
      "provider": "Austin Transportation",
      "timezone": "America/Chicago"
    },
    {
      "name": "FM 620 RD / PECAN PARK BLVD",
      "country": "US",
      "region": "Texas",
      "lat": 30.465965,
      "lon": -97.803963,
      "url": "https://cctv.austinmobility.io/image/488.jpg",
      "provider": "Austin Transportation",
      "timezone": "America/Chicago"
    },
    {
      "name": "FM 620 RD / 183 HWY SVRD",
      "country": "US",
      "region": "Texas",
      "lat": 30.468016,
      "lon": -97.797371,
      "url": "https://cctv.austinmobility.io/image/489.jpg",
      "provider": "Austin Transportation",
      "timezone": "America/Chicago"
    },
    {
      "name": "FM 620 RD / LAKE CREEK PKWY",
      "country": "US",
      "region": "Texas",
      "lat": 30.462158,
      "lon": -97.816017,
      "url": "https://cctv.austinmobility.io/image/490.jpg",
      "provider": "Austin Transportation",
      "timezone": "America/Chicago"
    },
    {
      "name": "FM 620 RD / EL SALIDO PKWY",
      "country": "US",
      "region": "Texas",
      "lat": 30.458035,
      "lon": -97.823113,
      "url": "https://cctv.austinmobility.io/image/491.jpg",
      "provider": "Austin Transportation",
      "timezone": "America/Chicago"
    },
    {
      "name": "AIRPORT BLVD / LEVANDER LOOP",
      "country": "US",
      "region": "Texas",
      "lat": 30.253723,
      "lon": -97.692543,
      "url": "https://cctv.austinmobility.io/image/492.jpg",
      "provider": "Austin Transportation",
      "timezone": "America/Chicago"
    },
    {
      "name": "BURNET RD / OHLEN RD",
      "country": "US",
      "region": "Texas",
      "lat": 30.362911,
      "lon": -97.729057,
      "url": "https://cctv.austinmobility.io/image/494.jpg",
      "provider": "Austin Transportation",
      "timezone": "America/Chicago"
    },
    {
      "name": "PARMER LN / HARRIS RIDGE BLVD",
      "country": "US",
      "region": "Texas",
      "lat": 30.402313,
      "lon": -97.657372,
      "url": "https://cctv.austinmobility.io/image/495.jpg",
      "provider": "Austin Transportation",
      "timezone": "America/Chicago"
    },
    {
      "name": "PARMER LN / INNOVAR CIR",
      "country": "US",
      "region": "Texas",
      "lat": 30.376001,
      "lon": -97.631714,
      "url": "https://cctv.austinmobility.io/image/496.jpg",
      "provider": "Austin Transportation",
      "timezone": "America/Chicago"
    },
    {
      "name": "PARMER LN / LEGENDARY DR (Riata Vista Circle - East)",
      "country": "US",
      "region": "Texas",
      "lat": 30.434356,
      "lon": -97.73172,
      "url": "https://cctv.austinmobility.io/image/497.jpg",
      "provider": "Austin Transportation",
      "timezone": "America/Chicago"
    },
    {
      "name": "MANOR RD / BERKMAN DR",
      "country": "US",
      "region": "Texas",
      "lat": 30.289087,
      "lon": -97.69854,
      "url": "https://cctv.austinmobility.io/image/498.jpg",
      "provider": "Austin Transportation",
      "timezone": "America/Chicago"
    },
    {
      "name": "STASSNEY LN / 1ST ST",
      "country": "US",
      "region": "Texas",
      "lat": 30.208471,
      "lon": -97.781525,
      "url": "https://cctv.austinmobility.io/image/499.jpg",
      "provider": "Austin Transportation",
      "timezone": "America/Chicago"
    },
    {
      "name": "HARRIS BRANCH PKWY / PARMER LN",
      "country": "US",
      "region": "Texas",
      "lat": 30.368521,
      "lon": -97.613174,
      "url": "https://cctv.austinmobility.io/image/500.jpg",
      "provider": "Austin Transportation",
      "timezone": "America/Chicago"
    },
    {
      "name": "FM 620 RD / WILSON PARKE AVE",
      "country": "US",
      "region": "Texas",
      "lat": 30.416769,
      "lon": -97.847313,
      "url": "https://cctv.austinmobility.io/image/501.jpg",
      "provider": "Austin Transportation",
      "timezone": "America/Chicago"
    },